{
"type": "FeatureCollection",
"name": "local2021_precincts",
"bbox": [ 41.5490323, 41.1614072, 46.6687633, 43.0830802 ],                                                                        
"features": [
{ "type": "Feature", "properties": { "district": 1.0, "precinct": 1.0, "latitude": 41.690369142188104, "longitude": 44.8019165, "id": 1001.0, "name_ka": "შ.დადიანის ქ. 15" }, "bbox": [ 44.8019165, 41.6903691, 44.8019165, 41.6903691 ], "geometry": { "type": "Point", "coordinates": [ 44.8019165, 41.6903691 ] } },
{ "type": "Feature", "properties": { "district": 1.0, "precinct": 2.0, "latitude": 41.690349621433, "longitude": 44.801962648440501, "id": 1002.0, "name_ka": "შ.დადიანის ქ. 15" }, "bbox": [ 44.8019626, 41.6903496, 44.8019626, 41.6903496 ], "geometry": { "type": "Point", "coordinates": [ 44.8019626, 41.6903496 ] } },
{ "type": "Feature", "properties": { "district": 1.0, "precinct": 3.0, "latitude": 41.691792357247799, "longitude": 44.798546796156302, "id": 1003.0, "name_ka": "გ.ქიქოძის ქ. 4" }, "bbox": [ 44.7985468, 41.6917924, 44.7985468, 41.6917924 ], "geometry": { "type": "Point", "coordinates": [ 44.7985468, 41.6917924 ] } },
{ "type": "Feature", "properties": { "district": 1.0, "precinct": 4.0, "latitude": 41.6887963, "longitude": 44.794791, "id": 1004.0, "name_ka": "გ.ნიშნიანიძის ქ.4ა" }, "bbox": [ 44.794791, 41.6887963, 44.794791, 41.6887963 ], "geometry": { "type": "Point", "coordinates": [ 44.794791, 41.6887963 ] } },
{ "type": "Feature", "properties": { "district": 1.0, "precinct": 5.0, "latitude": 41.6934649, "longitude": 44.7958217, "id": 1005.0, "name_ka": "ჩაიკოვსკის ქ. 9" }, "bbox": [ 44.7958217, 41.6934649, 44.7958217, 41.6934649 ], "geometry": { "type": "Point", "coordinates": [ 44.7958217, 41.6934649 ] } },
{ "type": "Feature", "properties": { "district": 1.0, "precinct": 6.0, "latitude": 41.6948889, "longitude": 44.7942444, "id": 1006.0, "name_ka": "შ. ჩიტაძის ქ.9" }, "bbox": [ 44.7942444, 41.6948889, 44.7942444, 41.6948889 ], "geometry": { "type": "Point", "coordinates": [ 44.7942444, 41.6948889 ] } },
{ "type": "Feature", "properties": { "district": 1.0, "precinct": 7.0, "latitude": 41.6938573, "longitude": 44.7959839, "id": 1007.0, "name_ka": "ვუკოლ ბერიძის ქ.2" }, "bbox": [ 44.7959839, 41.6938573, 44.7959839, 41.6938573 ], "geometry": { "type": "Point", "coordinates": [ 44.7959839, 41.6938573 ] } },
{ "type": "Feature", "properties": { "district": 1.0, "precinct": 8.0, "latitude": 41.697369247056599, "longitude": 44.798237456483399, "id": 1008.0, "name_ka": "რუსთაველის გამზ.10" }, "bbox": [ 44.7982375, 41.6973692, 44.7982375, 41.6973692 ], "geometry": { "type": "Point", "coordinates": [ 44.7982375, 41.6973692 ] } },
{ "type": "Feature", "properties": { "district": 1.0, "precinct": 9.0, "latitude": 41.697999335176199, "longitude": 44.797770220901398, "id": 1009.0, "name_ka": "რუსთაველის გამზ.10" }, "bbox": [ 44.7977702, 41.6979993, 44.7977702, 41.6979993 ], "geometry": { "type": "Point", "coordinates": [ 44.7977702, 41.6979993 ] } },
{ "type": "Feature", "properties": { "district": 1.0, "precinct": 10.0, "latitude": 41.696785, "longitude": 44.7940355, "id": 1010.0, "name_ka": "ბესიკის ქ. 25" }, "bbox": [ 44.7940355, 41.696785, 44.7940355, 41.696785 ], "geometry": { "type": "Point", "coordinates": [ 44.7940355, 41.696785 ] } },
{ "type": "Feature", "properties": { "district": 1.0, "precinct": 11.0, "latitude": 41.699374274800903, "longitude": 44.791241847993398, "id": 1011.0, "name_ka": "ა.ჭავჭავაძის ქ.19" }, "bbox": [ 44.7912418, 41.6993743, 44.7912418, 41.6993743 ], "geometry": { "type": "Point", "coordinates": [ 44.7912418, 41.6993743 ] } },
{ "type": "Feature", "properties": { "district": 1.0, "precinct": 12.0, "latitude": 41.699529742776498, "longitude": 44.795160107656898, "id": 1012.0, "name_ka": "ალ.გრიბოედოვის ქ. 8/10" }, "bbox": [ 44.7951601, 41.6995297, 44.7951601, 41.6995297 ], "geometry": { "type": "Point", "coordinates": [ 44.7951601, 41.6995297 ] } },
{ "type": "Feature", "properties": { "district": 1.0, "precinct": 13.0, "latitude": 41.700797973854897, "longitude": 44.799517313491798, "id": 1013.0, "name_ka": "ლ.ალექსი-მესხიშვილის ქ.5" }, "bbox": [ 44.7995173, 41.700798, 44.7995173, 41.700798 ], "geometry": { "type": "Point", "coordinates": [ 44.7995173, 41.700798 ] } },
{ "type": "Feature", "properties": { "district": 1.0, "precinct": 14.0, "latitude": 41.702219470228002, "longitude": 44.799062838761898, "id": 1014.0, "name_ka": "მარი ბროსეს ქ. 8" }, "bbox": [ 44.7990628, 41.7022195, 44.7990628, 41.7022195 ], "geometry": { "type": "Point", "coordinates": [ 44.7990628, 41.7022195 ] } },
{ "type": "Feature", "properties": { "district": 1.0, "precinct": 15.0, "latitude": 41.7014737654209, "longitude": 44.792833558058099, "id": 1015.0, "name_ka": "ალ.გრიბოედოვის ქ. 22" }, "bbox": [ 44.7928336, 41.7014738, 44.7928336, 41.7014738 ], "geometry": { "type": "Point", "coordinates": [ 44.7928336, 41.7014738 ] } },
{ "type": "Feature", "properties": { "district": 1.0, "precinct": 16.0, "latitude": 41.703080901779799, "longitude": 44.790980185983202, "id": 1016.0, "name_ka": "რუსთაველის ქ.52" }, "bbox": [ 44.7909802, 41.7030809, 44.7909802, 41.7030809 ], "geometry": { "type": "Point", "coordinates": [ 44.7909802, 41.7030809 ] } },
{ "type": "Feature", "properties": { "district": 1.0, "precinct": 17.0, "latitude": 41.708249819121399, "longitude": 44.787631148687701, "id": 1017.0, "name_ka": "კოსტავას ქ. 37ა" }, "bbox": [ 44.7876311, 41.7082498, 44.7876311, 41.7082498 ], "geometry": { "type": "Point", "coordinates": [ 44.7876311, 41.7082498 ] } },
{ "type": "Feature", "properties": { "district": 1.0, "precinct": 18.0, "latitude": 41.7047713, "longitude": 44.7900024, "id": 1018.0, "name_ka": "კოსტავას ქ.5" }, "bbox": [ 44.7900024, 41.7047713, 44.7900024, 41.7047713 ], "geometry": { "type": "Point", "coordinates": [ 44.7900024, 41.7047713 ] } },
{ "type": "Feature", "properties": { "district": 1.0, "precinct": 19.0, "latitude": 41.704066872360599, "longitude": 44.787983683467097, "id": 1019.0, "name_ka": "ზანდუკელის ქ. 16" }, "bbox": [ 44.7879837, 41.7040669, 44.7879837, 41.7040669 ], "geometry": { "type": "Point", "coordinates": [ 44.7879837, 41.7040669 ] } },
{ "type": "Feature", "properties": { "district": 1.0, "precinct": 20.0, "latitude": 41.704100796603598, "longitude": 44.782388232540796, "id": 1020.0, "name_ka": "ბარნოვის ქ.46" }, "bbox": [ 44.7823882, 41.7041008, 44.7823882, 41.7041008 ], "geometry": { "type": "Point", "coordinates": [ 44.7823882, 41.7041008 ] } },
{ "type": "Feature", "properties": { "district": 1.0, "precinct": 21.0, "latitude": 41.706263136650399, "longitude": 44.7861350871719, "id": 1021.0, "name_ka": "მელიქიშვილის ქ.2" }, "bbox": [ 44.7861351, 41.7062631, 44.7861351, 41.7062631 ], "geometry": { "type": "Point", "coordinates": [ 44.7861351, 41.7062631 ] } },
{ "type": "Feature", "properties": { "district": 1.0, "precinct": 22.0, "latitude": 41.706524566938199, "longitude": 44.785866994442799, "id": 1022.0, "name_ka": "მელიქიშვილის ქ.2" }, "bbox": [ 44.785867, 41.7065246, 44.785867, 41.7065246 ], "geometry": { "type": "Point", "coordinates": [ 44.785867, 41.7065246 ] } },
{ "type": "Feature", "properties": { "district": 1.0, "precinct": 23.0, "latitude": 41.704335465141803, "longitude": 44.782772663229302, "id": 1023.0, "name_ka": "ბარნოვის ქ.46" }, "bbox": [ 44.7827727, 41.7043355, 44.7827727, 41.7043355 ], "geometry": { "type": "Point", "coordinates": [ 44.7827727, 41.7043355 ] } },
{ "type": "Feature", "properties": { "district": 1.0, "precinct": 24.0, "latitude": 41.7035696, "longitude": 44.7821094, "id": 1024.0, "name_ka": "გოგებაშვილის ქ.39" }, "bbox": [ 44.7821094, 41.7035696, 44.7821094, 41.7035696 ], "geometry": { "type": "Point", "coordinates": [ 44.7821094, 41.7035696 ] } },
{ "type": "Feature", "properties": { "district": 1.0, "precinct": 25.0, "latitude": 41.704696238172403, "longitude": 44.780852794647203, "id": 1025.0, "name_ka": "შანიძის ქ.28" }, "bbox": [ 44.7808528, 41.7046962, 44.7808528, 41.7046962 ], "geometry": { "type": "Point", "coordinates": [ 44.7808528, 41.7046962 ] } },
{ "type": "Feature", "properties": { "district": 1.0, "precinct": 26.0, "latitude": 41.7054340714894, "longitude": 44.780456958027401, "id": 1026.0, "name_ka": "ვ.ბარნოვის ქ.62" }, "bbox": [ 44.780457, 41.7054341, 44.780457, 41.7054341 ], "geometry": { "type": "Point", "coordinates": [ 44.780457, 41.7054341 ] } },
{ "type": "Feature", "properties": { "district": 1.0, "precinct": 27.0, "latitude": 41.707247769044102, "longitude": 44.779555913491699, "id": 1027.0, "name_ka": "პეტრიაშვილის ჩიხი ქ.5ა" }, "bbox": [ 44.7795559, 41.7072478, 44.7795559, 41.7072478 ], "geometry": { "type": "Point", "coordinates": [ 44.7795559, 41.7072478 ] } },
{ "type": "Feature", "properties": { "district": 1.0, "precinct": 28.0, "latitude": 41.707400230187197, "longitude": 44.780272467459099, "id": 1028.0, "name_ka": "პეტრიაშვილის ქ.7" }, "bbox": [ 44.7802725, 41.7074002, 44.7802725, 41.7074002 ], "geometry": { "type": "Point", "coordinates": [ 44.7802725, 41.7074002 ] } },
{ "type": "Feature", "properties": { "district": 1.0, "precinct": 29.0, "latitude": 41.709650285966397, "longitude": 44.785307083991903, "id": 1029.0, "name_ka": "მ.კოსტავას ქ.47" }, "bbox": [ 44.7853071, 41.7096503, 44.7853071, 41.7096503 ], "geometry": { "type": "Point", "coordinates": [ 44.7853071, 41.7096503 ] } },
{ "type": "Feature", "properties": { "district": 1.0, "precinct": 30.0, "latitude": 41.708856435464497, "longitude": 44.783746588360501, "id": 1030.0, "name_ka": "შ.ღამბაშიძის ქ. 3" }, "bbox": [ 44.7837466, 41.7088564, 44.7837466, 41.7088564 ], "geometry": { "type": "Point", "coordinates": [ 44.7837466, 41.7088564 ] } },
{ "type": "Feature", "properties": { "district": 1.0, "precinct": 31.0, "latitude": 41.708811350627599, "longitude": 44.784041570569499, "id": 1031.0, "name_ka": "შ.ღამბაშიძის ქ. 3" }, "bbox": [ 44.7840416, 41.7088114, 44.7840416, 41.7088114 ], "geometry": { "type": "Point", "coordinates": [ 44.7840416, 41.7088114 ] } },
{ "type": "Feature", "properties": { "district": 1.0, "precinct": 32.0, "latitude": 41.686872, "longitude": 44.7755503, "id": 1032.0, "name_ka": "ოქროყანა" }, "bbox": [ 44.7755503, 41.686872, 44.7755503, 41.686872 ], "geometry": { "type": "Point", "coordinates": [ 44.7755503, 41.686872 ] } },
{ "type": "Feature", "properties": { "district": 1.0, "precinct": 33.0, "latitude": 41.7033259, "longitude": 44.7876111, "id": 1033.0, "name_ka": "ბარნოვის ქ.10" }, "bbox": [ 44.7876111, 41.7033259, 44.7876111, 41.7033259 ], "geometry": { "type": "Point", "coordinates": [ 44.7876111, 41.7033259 ] } },
{ "type": "Feature", "properties": { "district": 1.0, "precinct": 34.0, "latitude": 41.686702225721596, "longitude": 44.775952710808802, "id": 1034.0, "name_ka": "ოქროყანა" }, "bbox": [ 44.7759527, 41.6867022, 44.7759527, 41.6867022 ], "geometry": { "type": "Point", "coordinates": [ 44.7759527, 41.6867022 ] } },
{ "type": "Feature", "properties": { "district": 1.0, "precinct": 35.0, "latitude": 41.661458107422199, "longitude": 44.700450125794902, "id": 1035.0, "name_ka": "კოჯორი" }, "bbox": [ 44.7004501, 41.6614581, 44.7004501, 41.6614581 ], "geometry": { "type": "Point", "coordinates": [ 44.7004501, 41.6614581 ] } },
{ "type": "Feature", "properties": { "district": 1.0, "precinct": 36.0, "latitude": 41.657911998519999, "longitude": 44.6510231494903, "id": 1036.0, "name_ka": "კიკეთი" }, "bbox": [ 44.6510231, 41.657912, 44.6510231, 41.657912 ], "geometry": { "type": "Point", "coordinates": [ 44.6510231, 41.657912 ] } },
{ "type": "Feature", "properties": { "district": 1.0, "precinct": 37.0, "latitude": 41.648412285126902, "longitude": 44.760650945538302, "id": 1037.0, "name_ka": "ტაბახმელა" }, "bbox": [ 44.7606509, 41.6484123, 44.7606509, 41.6484123 ], "geometry": { "type": "Point", "coordinates": [ 44.7606509, 41.6484123 ] } },
{ "type": "Feature", "properties": { "district": 1.0, "precinct": 38.0, "latitude": 41.6683213, "longitude": 44.7414619, "id": 1038.0, "name_ka": "წავკისი" }, "bbox": [ 44.7414619, 41.6683213, 44.7414619, 41.6683213 ], "geometry": { "type": "Point", "coordinates": [ 44.7414619, 41.6683213 ] } },
{ "type": "Feature", "properties": { "district": 1.0, "precinct": 39.0, "latitude": 41.668928772151503, "longitude": 44.772162437438901, "id": 1039.0, "name_ka": "შინდისი" }, "bbox": [ 44.7721624, 41.6689288, 44.7721624, 41.6689288 ], "geometry": { "type": "Point", "coordinates": [ 44.7721624, 41.6689288 ] } },
{ "type": "Feature", "properties": { "district": 1.0, "precinct": 40.0, "latitude": 41.648516796603097, "longitude": 44.760913252830498, "id": 1040.0, "name_ka": "ტაბახმელა" }, "bbox": [ 44.7609133, 41.6485168, 44.7609133, 41.6485168 ], "geometry": { "type": "Point", "coordinates": [ 44.7609133, 41.6485168 ] } },
{ "type": "Feature", "properties": { "district": 1.0, "precinct": 41.0, "latitude": 41.6977216, "longitude": 44.805327353372903, "id": 1041.0, "name_ka": "ათონელის ქ. 5" }, "bbox": [ 44.8053274, 41.6977216, 44.8053274, 41.6977216 ], "geometry": { "type": "Point", "coordinates": [ 44.8053274, 41.6977216 ] } },
{ "type": "Feature", "properties": { "district": 2.0, "precinct": 1.0, "latitude": 41.709893499740602, "longitude": 44.777011871337798, "id": 2001.0, "name_ka": "ი.ჭავჭავაძის გამზ. №3" }, "bbox": [ 44.7770119, 41.7098935, 44.7770119, 41.7098935 ], "geometry": { "type": "Point", "coordinates": [ 44.7770119, 41.7098935 ] } },
{ "type": "Feature", "properties": { "district": 2.0, "precinct": 2.0, "latitude": 41.709853782624002, "longitude": 44.777124978573603, "id": 2002.0, "name_ka": "ი. ჭავჭავაძის გამზ.№3" }, "bbox": [ 44.777125, 41.7098538, 44.777125, 41.7098538 ], "geometry": { "type": "Point", "coordinates": [ 44.777125, 41.7098538 ] } },
{ "type": "Feature", "properties": { "district": 2.0, "precinct": 3.0, "latitude": 41.707467324074102, "longitude": 44.771799726983602, "id": 2003.0, "name_ka": "ი.აბაშიძის ქ.№ 13" }, "bbox": [ 44.7717997, 41.7074673, 44.7717997, 41.7074673 ], "geometry": { "type": "Point", "coordinates": [ 44.7717997, 41.7074673 ] } },
{ "type": "Feature", "properties": { "district": 2.0, "precinct": 4.0, "latitude": 41.709077071720898, "longitude": 44.769210977909701, "id": 2004.0, "name_ka": "ი.ჭავჭავაძის გამზ. №36" }, "bbox": [ 44.769211, 41.7090771, 44.769211, 41.7090771 ], "geometry": { "type": "Point", "coordinates": [ 44.769211, 41.7090771 ] } },
{ "type": "Feature", "properties": { "district": 2.0, "precinct": 5.0, "latitude": 41.708899184464897, "longitude": 44.770834882000699, "id": 2005.0, "name_ka": "ი.ჭავჭავაძის გამზ.№ 32" }, "bbox": [ 44.7708349, 41.7088992, 44.7708349, 41.7088992 ], "geometry": { "type": "Point", "coordinates": [ 44.7708349, 41.7088992 ] } },
{ "type": "Feature", "properties": { "district": 2.0, "precinct": 6.0, "latitude": 41.7091045762756, "longitude": 44.768187403678802, "id": 2006.0, "name_ka": "ი.ჭავჭავაძის გამზ.№ 38" }, "bbox": [ 44.7681874, 41.7091046, 44.7681874, 41.7091046 ], "geometry": { "type": "Point", "coordinates": [ 44.7681874, 41.7091046 ] } },
{ "type": "Feature", "properties": { "district": 2.0, "precinct": 7.0, "latitude": 41.707842997509097, "longitude": 44.768620746141004, "id": 2007.0, "name_ka": "ზ.ფალიაშვილის ქ №33ა" }, "bbox": [ 44.7686207, 41.707843, 44.7686207, 41.707843 ], "geometry": { "type": "Point", "coordinates": [ 44.7686207, 41.707843 ] } },
{ "type": "Feature", "properties": { "district": 2.0, "precinct": 8.0, "latitude": 41.707802849134701, "longitude": 44.771395176126802, "id": 2008.0, "name_ka": "ზ.ფალიაშვილის ქ. №34" }, "bbox": [ 44.7713952, 41.7078028, 44.7713952, 41.7078028 ], "geometry": { "type": "Point", "coordinates": [ 44.7713952, 41.7078028 ] } },
{ "type": "Feature", "properties": { "district": 2.0, "precinct": 9.0, "latitude": 41.709182847341197, "longitude": 44.768222230163502, "id": 2009.0, "name_ka": "ი.ჭავჭავაძის გამზ. N38" }, "bbox": [ 44.7682222, 41.7091828, 44.7682222, 41.7091828 ], "geometry": { "type": "Point", "coordinates": [ 44.7682222, 41.7091828 ] } },
{ "type": "Feature", "properties": { "district": 2.0, "precinct": 10.0, "latitude": 41.709659226524401, "longitude": 44.759266376495297, "id": 2010.0, "name_ka": "ზ.ფალიაშვილის ქ. N59" }, "bbox": [ 44.7592664, 41.7096592, 44.7592664, 41.7096592 ], "geometry": { "type": "Point", "coordinates": [ 44.7592664, 41.7096592 ] } },
{ "type": "Feature", "properties": { "district": 2.0, "precinct": 11.0, "latitude": 41.709673430404301, "longitude": 44.759149066864701, "id": 2011.0, "name_ka": "ზ.ფალიაშვილის ქ .№ 59" }, "bbox": [ 44.7591491, 41.7096734, 44.7591491, 41.7096734 ], "geometry": { "type": "Point", "coordinates": [ 44.7591491, 41.7096734 ] } },
{ "type": "Feature", "properties": { "district": 2.0, "precinct": 12.0, "latitude": 41.709526781258297, "longitude": 44.759962953967197, "id": 2012.0, "name_ka": "ზ.ფალიაშვილის ქ.№ 57" }, "bbox": [ 44.759963, 41.7095268, 44.759963, 41.7095268 ], "geometry": { "type": "Point", "coordinates": [ 44.759963, 41.7095268 ] } },
{ "type": "Feature", "properties": { "district": 2.0, "precinct": 13.0, "latitude": 41.708212307151904, "longitude": 44.7553265625656, "id": 2013.0, "name_ka": "ლ.ელიავას ქ. №14" }, "bbox": [ 44.7553266, 41.7082123, 44.7553266, 41.7082123 ], "geometry": { "type": "Point", "coordinates": [ 44.7553266, 41.7082123 ] } },
{ "type": "Feature", "properties": { "district": 2.0, "precinct": 14.0, "latitude": 41.714196366190897, "longitude": 44.758294075727399, "id": 2014.0, "name_ka": "ნ. ყიფშიძის ქ. №7" }, "bbox": [ 44.7582941, 41.7141964, 44.7582941, 41.7141964 ], "geometry": { "type": "Point", "coordinates": [ 44.7582941, 41.7141964 ] } },
{ "type": "Feature", "properties": { "district": 2.0, "precinct": 15.0, "latitude": 41.7120291135912, "longitude": 44.749450723942502, "id": 2015.0, "name_ka": "ჩოლოყაშვილის 3/5" }, "bbox": [ 44.7494507, 41.7120291, 44.7494507, 41.7120291 ], "geometry": { "type": "Point", "coordinates": [ 44.7494507, 41.7120291 ] } },
{ "type": "Feature", "properties": { "district": 2.0, "precinct": 16.0, "latitude": 41.712457827024402, "longitude": 44.748461384655698, "id": 2016.0, "name_ka": "გ. წერეთლის ქ .№1" }, "bbox": [ 44.7484614, 41.7124578, 44.7484614, 41.7124578 ], "geometry": { "type": "Point", "coordinates": [ 44.7484614, 41.7124578 ] } },
{ "type": "Feature", "properties": { "district": 2.0, "precinct": 17.0, "latitude": 41.711967881739497, "longitude": 44.746799468994098, "id": 2017.0, "name_ka": "ქ. თბილისი, ჭავჭავაძის გამზ. № 49" }, "bbox": [ 44.7467995, 41.7119679, 44.7467995, 41.7119679 ], "geometry": { "type": "Point", "coordinates": [ 44.7467995, 41.7119679 ] } },
{ "type": "Feature", "properties": { "district": 2.0, "precinct": 18.0, "latitude": 41.709681252247698, "longitude": 44.731001257896402, "id": 2018.0, "name_ka": "წყნეთის გზატკეცილი № 18/16" }, "bbox": [ 44.7310013, 41.7096813, 44.7310013, 41.7096813 ], "geometry": { "type": "Point", "coordinates": [ 44.7310013, 41.7096813 ] } },
{ "type": "Feature", "properties": { "district": 2.0, "precinct": 19.0, "latitude": 41.713739928384697, "longitude": 44.715177341108699, "id": 2019.0, "name_ka": "ბაგები. სტუდქალაქი 5 კორპ" }, "bbox": [ 44.7151773, 41.7137399, 44.7151773, 41.7137399 ], "geometry": { "type": "Point", "coordinates": [ 44.7151773, 41.7137399 ] } },
{ "type": "Feature", "properties": { "district": 2.0, "precinct": 20.0, "latitude": 41.743259928463402, "longitude": 44.692966431809701, "id": 2020.0, "name_ka": "სოფელი თხინვალა, თხინვალას ქ. 32" }, "bbox": [ 44.6929664, 41.7432599, 44.6929664, 41.7432599 ], "geometry": { "type": "Point", "coordinates": [ 44.6929664, 41.7432599 ] } },
{ "type": "Feature", "properties": { "district": 2.0, "precinct": 22.0, "latitude": 41.711911818241198, "longitude": 44.746799468994098, "id": 2022.0, "name_ka": "ქ. თბილისი, ჭავჭავაძის გამზ. № 49" }, "bbox": [ 44.7467995, 41.7119118, 44.7467995, 41.7119118 ], "geometry": { "type": "Point", "coordinates": [ 44.7467995, 41.7119118 ] } },
{ "type": "Feature", "properties": { "district": 2.0, "precinct": 23.0, "latitude": 41.725635974014601, "longitude": 44.734236186508099, "id": 2023.0, "name_ka": "ვაჟა-ფშაველას გამზ. #61" }, "bbox": [ 44.7342362, 41.725636, 44.7342362, 41.725636 ], "geometry": { "type": "Point", "coordinates": [ 44.7342362, 41.725636 ] } },
{ "type": "Feature", "properties": { "district": 2.0, "precinct": 24.0, "latitude": 41.729805751363799, "longitude": 44.7346331074096, "id": 2024.0, "name_ka": "ნუც.პლატო 3 მიკრ, მე-2 კვარტ.ძოწენიძის ქ#3" }, "bbox": [ 44.7346331, 41.7298058, 44.7346331, 41.7298058 ], "geometry": { "type": "Point", "coordinates": [ 44.7346331, 41.7298058 ] } },
{ "type": "Feature", "properties": { "district": 2.0, "precinct": 25.0, "latitude": 41.729973747794297, "longitude": 44.734992384910498, "id": 2025.0, "name_ka": "ნუც.პლატო 3 მიკრ, მე-2 კვარტ.ძოწენიძის ქ#3" }, "bbox": [ 44.7349924, 41.7299737, 44.7349924, 41.7299737 ], "geometry": { "type": "Point", "coordinates": [ 44.7349924, 41.7299737 ] } },
{ "type": "Feature", "properties": { "district": 2.0, "precinct": 26.0, "latitude": 41.7262286478392, "longitude": 44.744984897553103, "id": 2026.0, "name_ka": "ვაჟა-ფშაველას გამზ. I შესახ. #1/43" }, "bbox": [ 44.7449849, 41.7262286, 44.7449849, 41.7262286 ], "geometry": { "type": "Point", "coordinates": [ 44.7449849, 41.7262286 ] } },
{ "type": "Feature", "properties": { "district": 2.0, "precinct": 27.0, "latitude": 41.7243046664044, "longitude": 44.743854403495703, "id": 2027.0, "name_ka": "ალ. ყაზბეგის გამზ. #47" }, "bbox": [ 44.7438544, 41.7243047, 44.7438544, 41.7243047 ], "geometry": { "type": "Point", "coordinates": [ 44.7438544, 41.7243047 ] } },
{ "type": "Feature", "properties": { "district": 2.0, "precinct": 28.0, "latitude": 41.726156381121399, "longitude": 44.738645553588803, "id": 2028.0, "name_ka": "ვაჟა-ფშაველას გამზ. #49" }, "bbox": [ 44.7386456, 41.7261564, 44.7386456, 41.7261564 ], "geometry": { "type": "Point", "coordinates": [ 44.7386456, 41.7261564 ] } },
{ "type": "Feature", "properties": { "district": 2.0, "precinct": 29.0, "latitude": 41.721040692063298, "longitude": 44.730949254561601, "id": 2029.0, "name_ka": "პ.ქავთარაძის ქ. № 42, (23ა)" }, "bbox": [ 44.7309493, 41.7210407, 44.7309493, 41.7210407 ], "geometry": { "type": "Point", "coordinates": [ 44.7309493, 41.7210407 ] } },
{ "type": "Feature", "properties": { "district": 2.0, "precinct": 30.0, "latitude": 41.725642079537998, "longitude": 44.734311230688398, "id": 2030.0, "name_ka": "ვაჟა-ფშაველას გამზ. #61" }, "bbox": [ 44.7343112, 41.7256421, 44.7343112, 41.7256421 ], "geometry": { "type": "Point", "coordinates": [ 44.7343112, 41.7256421 ] } },
{ "type": "Feature", "properties": { "district": 2.0, "precinct": 31.0, "latitude": 41.725200784784199, "longitude": 44.730451243300898, "id": 2031.0, "name_ka": "ა. გელოვანის ქ.№ 4" }, "bbox": [ 44.7304512, 41.7252008, 44.7304512, 41.7252008 ], "geometry": { "type": "Point", "coordinates": [ 44.7304512, 41.7252008 ] } },
{ "type": "Feature", "properties": { "district": 2.0, "precinct": 32.0, "latitude": 41.722222674774898, "longitude": 44.743470847606602, "id": 2032.0, "name_ka": "ალ.ყაზბეგის #32/34 (ქუთათელაძის ქ#8)" }, "bbox": [ 44.7434708, 41.7222227, 44.7434708, 41.7222227 ], "geometry": { "type": "Point", "coordinates": [ 44.7434708, 41.7222227 ] } },
{ "type": "Feature", "properties": { "district": 2.0, "precinct": 33.0, "latitude": 41.727092925526897, "longitude": 44.725425208108099, "id": 2033.0, "name_ka": "შ.ნუცუბიძის ქ.№ 181." }, "bbox": [ 44.7254252, 41.7270929, 44.7254252, 41.7270929 ], "geometry": { "type": "Point", "coordinates": [ 44.7254252, 41.7270929 ] } },
{ "type": "Feature", "properties": { "district": 2.0, "precinct": 34.0, "latitude": 41.729625760126197, "longitude": 44.727224838098103, "id": 2034.0, "name_ka": "ბ.ჟღენტის ქ № 2" }, "bbox": [ 44.7272248, 41.7296258, 44.7272248, 41.7296258 ], "geometry": { "type": "Point", "coordinates": [ 44.7272248, 41.7296258 ] } },
{ "type": "Feature", "properties": { "district": 2.0, "precinct": 35.0, "latitude": 41.729581412228796, "longitude": 44.7272032499313, "id": 2035.0, "name_ka": "ბ.ჟღენტის ქ. № 2" }, "bbox": [ 44.7272032, 41.7295814, 44.7272032, 41.7295814 ], "geometry": { "type": "Point", "coordinates": [ 44.7272032, 41.7295814 ] } },
{ "type": "Feature", "properties": { "district": 2.0, "precinct": 36.0, "latitude": 41.7259674062065, "longitude": 44.729836944774597, "id": 2036.0, "name_ka": "ვაჟა-ფშაველას გამზ. № 71" }, "bbox": [ 44.7298369, 41.7259674, 44.7298369, 41.7259674 ], "geometry": { "type": "Point", "coordinates": [ 44.7298369, 41.7259674 ] } },
{ "type": "Feature", "properties": { "district": 2.0, "precinct": 37.0, "latitude": 41.721043516901297, "longitude": 44.730950295925098, "id": 2037.0, "name_ka": "პ.ქავთარაძის ქ.№42 (23ა)" }, "bbox": [ 44.7309503, 41.7210435, 44.7309503, 41.7210435 ], "geometry": { "type": "Point", "coordinates": [ 44.7309503, 41.7210435 ] } },
{ "type": "Feature", "properties": { "district": 2.0, "precinct": 38.0, "latitude": 41.720983096027901, "longitude": 44.7238833815451, "id": 2038.0, "name_ka": "პ.ქავთარაძის ქ. № 39 (16ა)" }, "bbox": [ 44.7238834, 41.7209831, 44.7238834, 41.7209831 ], "geometry": { "type": "Point", "coordinates": [ 44.7238834, 41.7209831 ] } },
{ "type": "Feature", "properties": { "district": 2.0, "precinct": 39.0, "latitude": 41.720980406730803, "longitude": 44.723877487171798, "id": 2039.0, "name_ka": "პ.ქავთარაძის ქ. №39 (16ა)" }, "bbox": [ 44.7238775, 41.7209804, 44.7238775, 41.7209804 ], "geometry": { "type": "Point", "coordinates": [ 44.7238775, 41.7209804 ] } },
{ "type": "Feature", "properties": { "district": 2.0, "precinct": 40.0, "latitude": 41.7249974335082, "longitude": 44.710207498147597, "id": 2040.0, "name_ka": "ე.მინდელის ქ. №7" }, "bbox": [ 44.7102075, 41.7249974, 44.7102075, 41.7249974 ], "geometry": { "type": "Point", "coordinates": [ 44.7102075, 41.7249974 ] } },
{ "type": "Feature", "properties": { "district": 2.0, "precinct": 41.0, "latitude": 41.723177793177797, "longitude": 44.717737734317701, "id": 2041.0, "name_ka": "ვაჟა-ფშაველას N99" }, "bbox": [ 44.7177377, 41.7231778, 44.7177377, 41.7231778 ], "geometry": { "type": "Point", "coordinates": [ 44.7177377, 41.7231778 ] } },
{ "type": "Feature", "properties": { "district": 2.0, "precinct": 42.0, "latitude": 41.733883146175401, "longitude": 44.7192694171966, "id": 2042.0, "name_ka": "შ.ნუცუბიძის V მიკრ." }, "bbox": [ 44.7192694, 41.7338831, 44.7192694, 41.7338831 ], "geometry": { "type": "Point", "coordinates": [ 44.7192694, 41.7338831 ] } },
{ "type": "Feature", "properties": { "district": 2.0, "precinct": 43.0, "latitude": 41.733832315860298, "longitude": 44.719399147221303, "id": 2043.0, "name_ka": "შ.ნუცუბიძის V მიკრ." }, "bbox": [ 44.7193991, 41.7338323, 44.7193991, 41.7338323 ], "geometry": { "type": "Point", "coordinates": [ 44.7193991, 41.7338323 ] } },
{ "type": "Feature", "properties": { "district": 2.0, "precinct": 44.0, "latitude": 41.722386080579398, "longitude": 44.723172284655803, "id": 2044.0, "name_ka": "მ.შავიშვილის ქ. № 5" }, "bbox": [ 44.7231723, 41.7223861, 44.7231723, 41.7223861 ], "geometry": { "type": "Point", "coordinates": [ 44.7231723, 41.7223861 ] } },
{ "type": "Feature", "properties": { "district": 2.0, "precinct": 45.0, "latitude": 41.7252135146746, "longitude": 44.723150432109797, "id": 2045.0, "name_ka": "ვ.თოფურიას ქ.№ 12" }, "bbox": [ 44.7231504, 41.7252135, 44.7231504, 41.7252135 ], "geometry": { "type": "Point", "coordinates": [ 44.7231504, 41.7252135 ] } },
{ "type": "Feature", "properties": { "district": 2.0, "precinct": 46.0, "latitude": 41.734812703699497, "longitude": 44.726487604893499, "id": 2046.0, "name_ka": "შ.ნუცუბიძის ფერდ, IV მიკრ," }, "bbox": [ 44.7264876, 41.7348127, 44.7264876, 41.7348127 ], "geometry": { "type": "Point", "coordinates": [ 44.7264876, 41.7348127 ] } },
{ "type": "Feature", "properties": { "district": 2.0, "precinct": 47.0, "latitude": 41.734159736863802, "longitude": 44.727967030670897, "id": 2047.0, "name_ka": "შ.ნუცუბიძის ფერდ, IV მიკრ," }, "bbox": [ 44.727967, 41.7341597, 44.727967, 41.7341597 ], "geometry": { "type": "Point", "coordinates": [ 44.727967, 41.7341597 ] } },
{ "type": "Feature", "properties": { "district": 2.0, "precinct": 48.0, "latitude": 41.7129310821066, "longitude": 44.748399791401603, "id": 2048.0, "name_ka": "გ.წერეთლის ქ.№ 3" }, "bbox": [ 44.7483998, 41.7129311, 44.7483998, 41.7129311 ], "geometry": { "type": "Point", "coordinates": [ 44.7483998, 41.7129311 ] } },
{ "type": "Feature", "properties": { "district": 2.0, "precinct": 49.0, "latitude": 41.710486453751201, "longitude": 44.753369262565599, "id": 2049.0, "name_ka": "ა.მიშველაძის ქ. № 2" }, "bbox": [ 44.7533693, 41.7104865, 44.7533693, 41.7104865 ], "geometry": { "type": "Point", "coordinates": [ 44.7533693, 41.7104865 ] } },
{ "type": "Feature", "properties": { "district": 2.0, "precinct": 50.0, "latitude": 41.709512235187098, "longitude": 44.759955492065401, "id": 2050.0, "name_ka": "ზ.ფალიაშვილის ქ №57" }, "bbox": [ 44.7599555, 41.7095122, 44.7599555, 41.7095122 ], "geometry": { "type": "Point", "coordinates": [ 44.7599555, 41.7095122 ] } },
{ "type": "Feature", "properties": { "district": 2.0, "precinct": 51.0, "latitude": 41.709366616961702, "longitude": 44.771620309682703, "id": 2051.0, "name_ka": "ი.ჭავჭავაძის გამზ. №13" }, "bbox": [ 44.7716203, 41.7093666, 44.7716203, 41.7093666 ], "geometry": { "type": "Point", "coordinates": [ 44.7716203, 41.7093666 ] } },
{ "type": "Feature", "properties": { "district": 2.0, "precinct": 52.0, "latitude": 41.709372891433901, "longitude": 44.771548211574498, "id": 2052.0, "name_ka": "ი.ჭავჭავაძის გამზ. № 13" }, "bbox": [ 44.7715482, 41.7093729, 44.7715482, 41.7093729 ], "geometry": { "type": "Point", "coordinates": [ 44.7715482, 41.7093729 ] } },
{ "type": "Feature", "properties": { "district": 2.0, "precinct": 53.0, "latitude": 41.7064517, "longitude": 44.7338281, "id": 2053.0, "name_ka": "ბაგები,იმედაძის 1 ჩიხი №4" }, "bbox": [ 44.7338281, 41.7064517, 44.7338281, 41.7064517 ], "geometry": { "type": "Point", "coordinates": [ 44.7338281, 41.7064517 ] } },
{ "type": "Feature", "properties": { "district": 2.0, "precinct": 54.0, "latitude": 41.7251615641662, "longitude": 44.729883886508098, "id": 2054.0, "name_ka": "ვაჟა-ფშაველას გამზ. №71" }, "bbox": [ 44.7298839, 41.7251616, 44.7298839, 41.7251616 ], "geometry": { "type": "Point", "coordinates": [ 44.7298839, 41.7251616 ] } },
{ "type": "Feature", "properties": { "district": 2.0, "precinct": 55.0, "latitude": 41.724611126897997, "longitude": 44.7236389209015, "id": 2055.0, "name_ka": "ვ.თოფურიას ქ .№10" }, "bbox": [ 44.7236389, 41.7246111, 44.7236389, 41.7246111 ], "geometry": { "type": "Point", "coordinates": [ 44.7236389, 41.7246111 ] } },
{ "type": "Feature", "properties": { "district": 2.0, "precinct": 56.0, "latitude": 41.720525040019403, "longitude": 44.708819898147503, "id": 2056.0, "name_ka": "ა.პოლიტკოვსკაიას ქ №26, II კორპ" }, "bbox": [ 44.7088199, 41.720525, 44.7088199, 41.720525 ], "geometry": { "type": "Point", "coordinates": [ 44.7088199, 41.720525 ] } },
{ "type": "Feature", "properties": { "district": 2.0, "precinct": 57.0, "latitude": 41.734429803134297, "longitude": 44.727937334393303, "id": 2057.0, "name_ka": "შ.ნუცუბიძის ფერდ, IV მიკრ," }, "bbox": [ 44.7279373, 41.7344298, 44.7279373, 41.7344298 ], "geometry": { "type": "Point", "coordinates": [ 44.7279373, 41.7344298 ] } },
{ "type": "Feature", "properties": { "district": 2.0, "precinct": 58.0, "latitude": 41.7347301, "longitude": 44.7263679, "id": 2058.0, "name_ka": "შ.ნუცუბიძის ფერდ, IV მიკრ," }, "bbox": [ 44.7263679, 41.7347301, 44.7263679, 41.7347301 ], "geometry": { "type": "Point", "coordinates": [ 44.7263679, 41.7347301 ] } },
{ "type": "Feature", "properties": { "district": 2.0, "precinct": 59.0, "latitude": 41.730181924876497, "longitude": 44.733753204345703, "id": 2059.0, "name_ka": "ნუცუბიძის პლატო მე-3 მიკრ, მე-2 კვარტ." }, "bbox": [ 44.7337532, 41.7301819, 44.7337532, 41.7301819 ], "geometry": { "type": "Point", "coordinates": [ 44.7337532, 41.7301819 ] } },
{ "type": "Feature", "properties": { "district": 2.0, "precinct": 60.0, "latitude": 41.725269981477901, "longitude": 44.723335604229703, "id": 2060.0, "name_ka": "ვ.თოფურიას ქ №.12" }, "bbox": [ 44.7233356, 41.72527, 44.7233356, 41.72527 ], "geometry": { "type": "Point", "coordinates": [ 44.7233356, 41.72527 ] } },
{ "type": "Feature", "properties": { "district": 2.0, "precinct": 61.0, "latitude": 41.725915975447002, "longitude": 44.729610470361301, "id": 2061.0, "name_ka": "ვაჟა-ფშაველას გამზ.№ 71" }, "bbox": [ 44.7296105, 41.725916, 44.7296105, 41.725916 ], "geometry": { "type": "Point", "coordinates": [ 44.7296105, 41.725916 ] } },
{ "type": "Feature", "properties": { "district": 2.0, "precinct": 62.0, "latitude": 41.725726313412402, "longitude": 44.739030254878202, "id": 2062.0, "name_ka": "ვაჟა-ფშაველას გამზ. #49" }, "bbox": [ 44.7390303, 41.7257263, 44.7390303, 41.7257263 ], "geometry": { "type": "Point", "coordinates": [ 44.7390303, 41.7257263 ] } },
{ "type": "Feature", "properties": { "district": 2.0, "precinct": 63.0, "latitude": 41.720964252606002, "longitude": 44.7238538337295, "id": 2063.0, "name_ka": "პ.ქავთარაძის ქ.№ 39 (16ა)" }, "bbox": [ 44.7238538, 41.7209643, 44.7238538, 41.7209643 ], "geometry": { "type": "Point", "coordinates": [ 44.7238538, 41.7209643 ] } },
{ "type": "Feature", "properties": { "district": 2.0, "precinct": 64.0, "latitude": 41.722827260064001, "longitude": 44.715422987937899, "id": 2064.0, "name_ka": "ზ.ანჯაფარიძის #5" }, "bbox": [ 44.715423, 41.7228273, 44.715423, 41.7228273 ], "geometry": { "type": "Point", "coordinates": [ 44.715423, 41.7228273 ] } },
{ "type": "Feature", "properties": { "district": 2.0, "precinct": 65.0, "latitude": 41.720789582209797, "longitude": 44.744799506874003, "id": 2065.0, "name_ka": "თამარაშვილის #6" }, "bbox": [ 44.7447995, 41.7207896, 44.7447995, 41.7207896 ], "geometry": { "type": "Point", "coordinates": [ 44.7447995, 41.7207896 ] } },
{ "type": "Feature", "properties": { "district": 2.0, "precinct": 66.0, "latitude": 41.697766245675503, "longitude": 44.700398230322101, "id": 2066.0, "name_ka": "წყნეთი. ი.გრიშაშვილის ქ. №1" }, "bbox": [ 44.7003982, 41.6977662, 44.7003982, 41.6977662 ], "geometry": { "type": "Point", "coordinates": [ 44.7003982, 41.6977662 ] } },
{ "type": "Feature", "properties": { "district": 2.0, "precinct": 67.0, "latitude": 41.698996742941098, "longitude": 44.708014377269897, "id": 2067.0, "name_ka": "წყნეთი ქ. წამებულის № 1" }, "bbox": [ 44.7080144, 41.6989967, 44.7080144, 41.6989967 ], "geometry": { "type": "Point", "coordinates": [ 44.7080144, 41.6989967 ] } },
{ "type": "Feature", "properties": { "district": 2.0, "precinct": 68.0, "latitude": 41.690611130312703, "longitude": 44.689206984735698, "id": 2068.0, "name_ka": "წყნეთი.გაგრის ჩიხი №17." }, "bbox": [ 44.689207, 41.6906111, 44.689207, 41.6906111 ], "geometry": { "type": "Point", "coordinates": [ 44.689207, 41.6906111 ] } },
{ "type": "Feature", "properties": { "district": 2.0, "precinct": 69.0, "latitude": 41.693042996139802, "longitude": 44.687272887226101, "id": 2069.0, "name_ka": "წყ, მ.წყნეთელის და სოხუმის ქ.მიმდ." }, "bbox": [ 44.6872729, 41.693043, 44.6872729, 41.693043 ], "geometry": { "type": "Point", "coordinates": [ 44.6872729, 41.693043 ] } },
{ "type": "Feature", "properties": { "district": 2.0, "precinct": 70.0, "latitude": 41.697795601746101, "longitude": 44.700402297692101, "id": 2070.0, "name_ka": "წყნეთი. ი.გრიშაშვილის ქ № 1" }, "bbox": [ 44.7004023, 41.6977956, 44.7004023, 41.6977956 ], "geometry": { "type": "Point", "coordinates": [ 44.7004023, 41.6977956 ] } },
{ "type": "Feature", "properties": { "district": 2.0, "precinct": 71.0, "latitude": 41.709121188600697, "longitude": 44.769124543269299, "id": 2071.0, "name_ka": "ი.ჭავჭავაძის გამზ. № 36" }, "bbox": [ 44.7691245, 41.7091212, 44.7691245, 41.7091212 ], "geometry": { "type": "Point", "coordinates": [ 44.7691245, 41.7091212 ] } },
{ "type": "Feature", "properties": { "district": 2.0, "precinct": 72.0, "latitude": 41.729613713739397, "longitude": 44.727249209123201, "id": 2072.0, "name_ka": "ბ.ჟღენტის ქ №2" }, "bbox": [ 44.7272492, 41.7296137, 44.7272492, 41.7296137 ], "geometry": { "type": "Point", "coordinates": [ 44.7272492, 41.7296137 ] } },
{ "type": "Feature", "properties": { "district": 2.0, "precinct": 73.0, "latitude": 41.7347543, "longitude": 44.7261465, "id": 2073.0, "name_ka": "შ.ნუცუბიძის ფერდ, IV მიკრ," }, "bbox": [ 44.7261465, 41.7347543, 44.7261465, 41.7347543 ], "geometry": { "type": "Point", "coordinates": [ 44.7261465, 41.7347543 ] } },
{ "type": "Feature", "properties": { "district": 2.0, "precinct": 74.0, "latitude": 41.722179965909099, "longitude": 44.723170996140396, "id": 2074.0, "name_ka": "მ.შავიშვილის ქ. № 5" }, "bbox": [ 44.723171, 41.72218, 44.723171, 41.72218 ], "geometry": { "type": "Point", "coordinates": [ 44.723171, 41.72218 ] } },
{ "type": "Feature", "properties": { "district": 2.0, "precinct": 75.0, "latitude": 41.697912984401697, "longitude": 44.700184110304498, "id": 2075.0, "name_ka": "წყნეთი,ი. გრიშაშვილის ქ.#1" }, "bbox": [ 44.7001841, 41.697913, 44.7001841, 41.697913 ], "geometry": { "type": "Point", "coordinates": [ 44.7001841, 41.697913 ] } },
{ "type": "Feature", "properties": { "district": 2.0, "precinct": 76.0, "latitude": 41.709649214829398, "longitude": 44.759255647659302, "id": 2076.0, "name_ka": "ზ.ფალიაშვილის ქ № 59" }, "bbox": [ 44.7592556, 41.7096492, 44.7592556, 41.7096492 ], "geometry": { "type": "Point", "coordinates": [ 44.7592556, 41.7096492 ] } },
{ "type": "Feature", "properties": { "district": 2.0, "precinct": 77.0, "latitude": 41.717034289358097, "longitude": 44.721445065313702, "id": 2077.0, "name_ka": "უნივერსიტეტის ქუჩა" }, "bbox": [ 44.7214451, 41.7170343, 44.7214451, 41.7170343 ], "geometry": { "type": "Point", "coordinates": [ 44.7214451, 41.7170343 ] } },
{ "type": "Feature", "properties": { "district": 2.0, "precinct": 78.0, "latitude": 41.722739175144099, "longitude": 44.743511080741797, "id": 2078.0, "name_ka": "კ.ქუთათელაძის ქ. #3" }, "bbox": [ 44.7435111, 41.7227392, 44.7435111, 41.7227392 ], "geometry": { "type": "Point", "coordinates": [ 44.7435111, 41.7227392 ] } },
{ "type": "Feature", "properties": { "district": 2.0, "precinct": 79.0, "latitude": 41.713641755089697, "longitude": 44.719199538230797, "id": 2079.0, "name_ka": "ბაგები" }, "bbox": [ 44.7191995, 41.7136418, 44.7191995, 41.7136418 ], "geometry": { "type": "Point", "coordinates": [ 44.7191995, 41.7136418 ] } },
{ "type": "Feature", "properties": { "district": 3.0, "precinct": 1.0, "latitude": 41.7158147949376, "longitude": 44.782812505873103, "id": 3001.0, "name_ka": "მ. ალექსიძის 2 შეს. N3. I სართ." }, "bbox": [ 44.7828125, 41.7158148, 44.7828125, 41.7158148 ], "geometry": { "type": "Point", "coordinates": [ 44.7828125, 41.7158148 ] } },
{ "type": "Feature", "properties": { "district": 3.0, "precinct": 2.0, "latitude": 41.717235630141097, "longitude": 44.7780954837799, "id": 3002.0, "name_ka": "მ. კოსტავას ქ. N72, I სართ." }, "bbox": [ 44.7780955, 41.7172356, 44.7780955, 41.7172356 ], "geometry": { "type": "Point", "coordinates": [ 44.7780955, 41.7172356 ] } },
{ "type": "Feature", "properties": { "district": 3.0, "precinct": 3.0, "latitude": 41.717858281103801, "longitude": 44.776791930198598, "id": 3003.0, "name_ka": "ვ. დოლიძის N3, I სართ." }, "bbox": [ 44.7767919, 41.7178583, 44.7767919, 41.7178583 ], "geometry": { "type": "Point", "coordinates": [ 44.7767919, 41.7178583 ] } },
{ "type": "Feature", "properties": { "district": 3.0, "precinct": 4.0, "latitude": 41.714899133672503, "longitude": 44.769233465194702, "id": 3004.0, "name_ka": "ს. ჩიქოვანის ქ. N26, I სართ." }, "bbox": [ 44.7692335, 41.7148991, 44.7692335, 41.7148991 ], "geometry": { "type": "Point", "coordinates": [ 44.7692335, 41.7148991 ] } },
{ "type": "Feature", "properties": { "district": 3.0, "precinct": 5.0, "latitude": 41.715896209393101, "longitude": 44.779173731803802, "id": 3005.0, "name_ka": "მ. კოსტავას ქ. N69, I სართ." }, "bbox": [ 44.7791737, 41.7158962, 44.7791737, 41.7158962 ], "geometry": { "type": "Point", "coordinates": [ 44.7791737, 41.7158962 ] } },
{ "type": "Feature", "properties": { "district": 3.0, "precinct": 6.0, "latitude": 41.725103412594997, "longitude": 44.749024361371902, "id": 3006.0, "name_ka": "ალ. ყაზბეგის გამზ. N35ა, I სართ." }, "bbox": [ 44.7490244, 41.7251034, 44.7490244, 41.7251034 ], "geometry": { "type": "Point", "coordinates": [ 44.7490244, 41.7251034 ] } },
{ "type": "Feature", "properties": { "district": 3.0, "precinct": 7.0, "latitude": 41.724572918112102, "longitude": 44.746831655502298, "id": 3007.0, "name_ka": "ალ. ყაზბეგის გამზ. N39, I სართ." }, "bbox": [ 44.7468317, 41.7245729, 44.7468317, 41.7245729 ], "geometry": { "type": "Point", "coordinates": [ 44.7468317, 41.7245729 ] } },
{ "type": "Feature", "properties": { "district": 3.0, "precinct": 8.0, "latitude": 41.714879111913199, "longitude": 44.769238829612704, "id": 3008.0, "name_ka": "ს. ჩიქოვანის ქ. N26, III სართ." }, "bbox": [ 44.7692388, 41.7148791, 44.7692388, 41.7148791 ], "geometry": { "type": "Point", "coordinates": [ 44.7692388, 41.7148791 ] } },
{ "type": "Feature", "properties": { "district": 3.0, "precinct": 9.0, "latitude": 41.718817891786301, "longitude": 44.766984938622997, "id": 3009.0, "name_ka": "ზ. ფანასკერტელის ქ. N14, I სართ." }, "bbox": [ 44.7669849, 41.7188179, 44.7669849, 41.7188179 ], "geometry": { "type": "Point", "coordinates": [ 44.7669849, 41.7188179 ] } },
{ "type": "Feature", "properties": { "district": 3.0, "precinct": 10.0, "latitude": 41.719845851501702, "longitude": 44.763358512827999, "id": 3010.0, "name_ka": "ბახტრიონის ქ. N24, I სართ." }, "bbox": [ 44.7633585, 41.7198459, 44.7633585, 41.7198459 ], "geometry": { "type": "Point", "coordinates": [ 44.7633585, 41.7198459 ] } },
{ "type": "Feature", "properties": { "district": 3.0, "precinct": 11.0, "latitude": 41.7205209969013, "longitude": 44.7732943296432, "id": 3011.0, "name_ka": "ბახტრიონის ქ. N8, I სართ." }, "bbox": [ 44.7732943, 41.720521, 44.7732943, 41.720521 ], "geometry": { "type": "Point", "coordinates": [ 44.7732943, 41.720521 ] } },
{ "type": "Feature", "properties": { "district": 3.0, "precinct": 12.0, "latitude": 41.721357827651701, "longitude": 44.762758612632702, "id": 3012.0, "name_ka": "ს. ცინცაძის ქ. N63, I სართ." }, "bbox": [ 44.7627586, 41.7213578, 44.7627586, 41.7213578 ], "geometry": { "type": "Point", "coordinates": [ 44.7627586, 41.7213578 ] } },
{ "type": "Feature", "properties": { "district": 3.0, "precinct": 13.0, "latitude": 41.7234468, "longitude": 44.759882, "id": 3013.0, "name_ka": "ა. ცაგარელის ქ. N102, II სართ." }, "bbox": [ 44.759882, 41.7234468, 44.759882, 41.7234468 ], "geometry": { "type": "Point", "coordinates": [ 44.759882, 41.7234468 ] } },
{ "type": "Feature", "properties": { "district": 3.0, "precinct": 14.0, "latitude": 41.7254136997906, "longitude": 44.774072170257497, "id": 3014.0, "name_ka": "ა. ქუთათელის N3, I სართ." }, "bbox": [ 44.7740722, 41.7254137, 44.7740722, 41.7254137 ], "geometry": { "type": "Point", "coordinates": [ 44.7740722, 41.7254137 ] } },
{ "type": "Feature", "properties": { "district": 3.0, "precinct": 15.0, "latitude": 41.725133440453597, "longitude": 44.7669804096221, "id": 3015.0, "name_ka": "ა. მიცკევიჩის N19 1 სართ." }, "bbox": [ 44.7669804, 41.7251334, 44.7669804, 41.7251334 ], "geometry": { "type": "Point", "coordinates": [ 44.7669804, 41.7251334 ] } },
{ "type": "Feature", "properties": { "district": 3.0, "precinct": 16.0, "latitude": 41.722227672743799, "longitude": 44.757468606745803, "id": 3016.0, "name_ka": "საირმის ქ. N84, I სართ." }, "bbox": [ 44.7574686, 41.7222277, 44.7574686, 41.7222277 ], "geometry": { "type": "Point", "coordinates": [ 44.7574686, 41.7222277 ] } },
{ "type": "Feature", "properties": { "district": 3.0, "precinct": 17.0, "latitude": 41.726960575886601, "longitude": 44.765215516090301, "id": 3017.0, "name_ka": "ვ/ფშაველას გამზ. N6/ა , I სართ." }, "bbox": [ 44.7652155, 41.7269606, 44.7652155, 41.7269606 ], "geometry": { "type": "Point", "coordinates": [ 44.7652155, 41.7269606 ] } },
{ "type": "Feature", "properties": { "district": 3.0, "precinct": 18.0, "latitude": 41.725409696094403, "longitude": 44.754304289817803, "id": 3018.0, "name_ka": "ალ. ყაზბეგის გამზ. N27, I სართ." }, "bbox": [ 44.7543043, 41.7254097, 44.7543043, 41.7254097 ], "geometry": { "type": "Point", "coordinates": [ 44.7543043, 41.7254097 ] } },
{ "type": "Feature", "properties": { "district": 3.0, "precinct": 19.0, "latitude": 41.725309603608103, "longitude": 44.746949672698896, "id": 3019.0, "name_ka": "ვ/ფშაველას გამზ. N44 I სართ." }, "bbox": [ 44.7469497, 41.7253096, 44.7469497, 41.7253096 ], "geometry": { "type": "Point", "coordinates": [ 44.7469497, 41.7253096 ] } },
{ "type": "Feature", "properties": { "district": 3.0, "precinct": 20.0, "latitude": 41.726443842485303, "longitude": 44.751108795317101, "id": 3020.0, "name_ka": "ვ/ფშაველას გამზ. N33, I სართ." }, "bbox": [ 44.7511088, 41.7264438, 44.7511088, 41.7264438 ], "geometry": { "type": "Point", "coordinates": [ 44.7511088, 41.7264438 ] } },
{ "type": "Feature", "properties": { "district": 3.0, "precinct": 21.0, "latitude": 41.726782949260098, "longitude": 44.750951528549102, "id": 3021.0, "name_ka": "ვ/ფშაველას გამზ. N33, I სართ." }, "bbox": [ 44.7509515, 41.7267829, 44.7509515, 41.7267829 ], "geometry": { "type": "Point", "coordinates": [ 44.7509515, 41.7267829 ] } },
{ "type": "Feature", "properties": { "district": 3.0, "precinct": 22.0, "latitude": 41.729793060223997, "longitude": 44.766803383827202, "id": 3022.0, "name_ka": "გ. ფანჯიკიძის ქ. N3" }, "bbox": [ 44.7668034, 41.7297931, 44.7668034, 41.7297931 ], "geometry": { "type": "Point", "coordinates": [ 44.7668034, 41.7297931 ] } },
{ "type": "Feature", "properties": { "district": 3.0, "precinct": 23.0, "latitude": 41.727147276806001, "longitude": 44.765462279319699, "id": 3023.0, "name_ka": "ვ/ფშაველას გამზ. N6/ა , I სართ." }, "bbox": [ 44.7654623, 41.7271473, 44.7654623, 41.7271473 ], "geometry": { "type": "Point", "coordinates": [ 44.7654623, 41.7271473 ] } },
{ "type": "Feature", "properties": { "district": 3.0, "precinct": 24.0, "latitude": 41.726802967310697, "longitude": 44.765354990959104, "id": 3024.0, "name_ka": "ვ/ფშაველას გამზ. N6/ა , I სართ." }, "bbox": [ 44.765355, 41.726803, 44.765355, 41.726803 ], "geometry": { "type": "Point", "coordinates": [ 44.765355, 41.726803 ] } },
{ "type": "Feature", "properties": { "district": 3.0, "precinct": 25.0, "latitude": 41.733656781168698, "longitude": 44.767650961875901, "id": 3025.0, "name_ka": "ი. იმედაშვილის N4, I სართ." }, "bbox": [ 44.767651, 41.7336568, 44.767651, 41.7336568 ], "geometry": { "type": "Point", "coordinates": [ 44.767651, 41.7336568 ] } },
{ "type": "Feature", "properties": { "district": 3.0, "precinct": 26.0, "latitude": 41.727867918613903, "longitude": 44.767130613326998, "id": 3026.0, "name_ka": "ვ/ფშაველას გამზ. N1 I სართ." }, "bbox": [ 44.7671306, 41.7278679, 44.7671306, 41.7278679 ], "geometry": { "type": "Point", "coordinates": [ 44.7671306, 41.7278679 ] } },
{ "type": "Feature", "properties": { "district": 3.0, "precinct": 27.0, "latitude": 41.728000035401799, "longitude": 44.772017598152097, "id": 3027.0, "name_ka": "ჟ. შარტავას ქ. N20, I სართ." }, "bbox": [ 44.7720176, 41.728, 44.7720176, 41.728 ], "geometry": { "type": "Point", "coordinates": [ 44.7720176, 41.728 ] } },
{ "type": "Feature", "properties": { "district": 3.0, "precinct": 28.0, "latitude": 41.725501781044002, "longitude": 44.772248268127399, "id": 3028.0, "name_ka": "თ. იოსებიძის ქ. N50, I სართ." }, "bbox": [ 44.7722483, 41.7255018, 44.7722483, 41.7255018 ], "geometry": { "type": "Point", "coordinates": [ 44.7722483, 41.7255018 ] } },
{ "type": "Feature", "properties": { "district": 3.0, "precinct": 29.0, "latitude": 41.7268224, "longitude": 44.7710713, "id": 3029.0, "name_ka": "თ. იოსებიძის ქ. N62, I სართ." }, "bbox": [ 44.7710713, 41.7268224, 44.7710713, 41.7268224 ], "geometry": { "type": "Point", "coordinates": [ 44.7710713, 41.7268224 ] } },
{ "type": "Feature", "properties": { "district": 3.0, "precinct": 30.0, "latitude": 41.724594693194703, "longitude": 44.7783207350327, "id": 3030.0, "name_ka": "მ. კოსტავას ქ. N77, I სართ." }, "bbox": [ 44.7783207, 41.7245947, 44.7783207, 41.7245947 ], "geometry": { "type": "Point", "coordinates": [ 44.7783207, 41.7245947 ] } },
{ "type": "Feature", "properties": { "district": 3.0, "precinct": 31.0, "latitude": 41.722162616322997, "longitude": 44.7788840532302, "id": 3031.0, "name_ka": "მ. კოსტავას ქ. N75, I სართ." }, "bbox": [ 44.7788841, 41.7221626, 44.7788841, 41.7221626 ], "geometry": { "type": "Point", "coordinates": [ 44.7788841, 41.7221626 ] } },
{ "type": "Feature", "properties": { "district": 3.0, "precinct": 32.0, "latitude": 41.729333198694803, "longitude": 44.7730100154876, "id": 3032.0, "name_ka": "ლ. გოთუას ქ. N14, I სართ." }, "bbox": [ 44.77301, 41.7293332, 44.77301, 41.7293332 ], "geometry": { "type": "Point", "coordinates": [ 44.77301, 41.7293332 ] } },
{ "type": "Feature", "properties": { "district": 3.0, "precinct": 33.0, "latitude": 41.751856670121697, "longitude": 44.760480886145601, "id": 3033.0, "name_ka": "ვაშლიჯვარი. მეორე ზონა, I სართ." }, "bbox": [ 44.7604809, 41.7518567, 44.7604809, 41.7518567 ], "geometry": { "type": "Point", "coordinates": [ 44.7604809, 41.7518567 ] } },
{ "type": "Feature", "properties": { "district": 3.0, "precinct": 34.0, "latitude": 41.753771056022302, "longitude": 44.763431279062402, "id": 3034.0, "name_ka": "ვაშლიჯვარი. გოძიაშვილის 2 შეს. N10, I სართ." }, "bbox": [ 44.7634313, 41.7537711, 44.7634313, 41.7537711 ], "geometry": { "type": "Point", "coordinates": [ 44.7634313, 41.7537711 ] } },
{ "type": "Feature", "properties": { "district": 3.0, "precinct": 35.0, "latitude": 41.797935707842903, "longitude": 44.776582717895501, "id": 3035.0, "name_ka": "პატარა დიღომი, საცდელი მეურნეობა, I სართ." }, "bbox": [ 44.7765827, 41.7979357, 44.7765827, 41.7979357 ], "geometry": { "type": "Point", "coordinates": [ 44.7765827, 41.7979357 ] } },
{ "type": "Feature", "properties": { "district": 3.0, "precinct": 36.0, "latitude": 41.790524810511002, "longitude": 44.761304855346602, "id": 3036.0, "name_ka": "დ/დიღომი, გ. ბრწყინვალეს N5, I სართ." }, "bbox": [ 44.7613049, 41.7905248, 44.7613049, 41.7905248 ], "geometry": { "type": "Point", "coordinates": [ 44.7613049, 41.7905248 ] } },
{ "type": "Feature", "properties": { "district": 3.0, "precinct": 37.0, "latitude": 41.7906365, "longitude": 44.7597967, "id": 3037.0, "name_ka": "დ/დიღომი ი. პეტრიწის ქ. N8ბ" }, "bbox": [ 44.7597967, 41.7906365, 44.7597967, 41.7906365 ], "geometry": { "type": "Point", "coordinates": [ 44.7597967, 41.7906365 ] } },
{ "type": "Feature", "properties": { "district": 3.0, "precinct": 38.0, "latitude": 41.799336072874198, "longitude": 44.7655215803224, "id": 3038.0, "name_ka": "დ/დიღომი დ. აღმაშენებლის 12-ე კმ" }, "bbox": [ 44.7655216, 41.7993361, 44.7655216, 41.7993361 ], "geometry": { "type": "Point", "coordinates": [ 44.7655216, 41.7993361 ] } },
{ "type": "Feature", "properties": { "district": 3.0, "precinct": 39.0, "latitude": 41.799227427934198, "longitude": 44.766111373901303, "id": 3039.0, "name_ka": "დ. აღმაშენებლის ხეივანი 12-ე კმ" }, "bbox": [ 44.7661114, 41.7992274, 44.7661114, 41.7992274 ], "geometry": { "type": "Point", "coordinates": [ 44.7661114, 41.7992274 ] } },
{ "type": "Feature", "properties": { "district": 3.0, "precinct": 40.0, "latitude": 41.7894686, "longitude": 44.7475516, "id": 3040.0, "name_ka": "დ/დიღომი მე-3 მკრ, I სართ." }, "bbox": [ 44.7475516, 41.7894686, 44.7475516, 41.7894686 ], "geometry": { "type": "Point", "coordinates": [ 44.7475516, 41.7894686 ] } },
{ "type": "Feature", "properties": { "district": 3.0, "precinct": 41.0, "latitude": 41.789676235508999, "longitude": 44.745176311868299, "id": 3041.0, "name_ka": "დ/დიღომი მე-3 მკრ. მე-12 კორ მიმდ, I სართ." }, "bbox": [ 44.7451763, 41.7896762, 44.7451763, 41.7896762 ], "geometry": { "type": "Point", "coordinates": [ 44.7451763, 41.7896762 ] } },
{ "type": "Feature", "properties": { "district": 3.0, "precinct": 42.0, "latitude": 41.790845998339201, "longitude": 44.740443520166799, "id": 3042.0, "name_ka": "დ/დიღომი მე-3 მკრ, I სართ." }, "bbox": [ 44.7404435, 41.790846, 44.7404435, 41.790846 ], "geometry": { "type": "Point", "coordinates": [ 44.7404435, 41.790846 ] } },
{ "type": "Feature", "properties": { "district": 3.0, "precinct": 43.0, "latitude": 41.717871235721297, "longitude": 44.776566746141, "id": 3043.0, "name_ka": "ვ. დოლიძის 3, I სართ." }, "bbox": [ 44.7765667, 41.7178712, 44.7765667, 41.7178712 ], "geometry": { "type": "Point", "coordinates": [ 44.7765667, 41.7178712 ] } },
{ "type": "Feature", "properties": { "district": 3.0, "precinct": 44.0, "latitude": 41.723491896930199, "longitude": 44.777483940124498, "id": 3044.0, "name_ka": "მ. კოსტავას ქ. N77, I სართ." }, "bbox": [ 44.7774839, 41.7234919, 44.7774839, 41.7234919 ], "geometry": { "type": "Point", "coordinates": [ 44.7774839, 41.7234919 ] } },
{ "type": "Feature", "properties": { "district": 3.0, "precinct": 45.0, "latitude": 41.725133440453597, "longitude": 44.765692949295001, "id": 3045.0, "name_ka": "ჯ. ბაგრატიონის ქ. N6, I სართ." }, "bbox": [ 44.7656929, 41.7251334, 44.7656929, 41.7251334 ], "geometry": { "type": "Point", "coordinates": [ 44.7656929, 41.7251334 ] } },
{ "type": "Feature", "properties": { "district": 3.0, "precinct": 46.0, "latitude": 41.729977217425997, "longitude": 44.767307639122002, "id": 3046.0, "name_ka": "გ. ფანჯიკიძის ქ. №1ა, I სართ." }, "bbox": [ 44.7673076, 41.7299772, 44.7673076, 41.7299772 ], "geometry": { "type": "Point", "coordinates": [ 44.7673076, 41.7299772 ] } },
{ "type": "Feature", "properties": { "district": 3.0, "precinct": 47.0, "latitude": 41.7262544704666, "longitude": 44.745383262634199, "id": 3047.0, "name_ka": "ვ/ფშაველას გამზ. 1-ლი შეს 1/43, I სართ." }, "bbox": [ 44.7453833, 41.7262545, 44.7453833, 41.7262545 ], "geometry": { "type": "Point", "coordinates": [ 44.7453833, 41.7262545 ] } },
{ "type": "Feature", "properties": { "district": 3.0, "precinct": 48.0, "latitude": 41.722318768181196, "longitude": 44.777827262878397, "id": 3048.0, "name_ka": "მ. კოსტავას ქ. N77, I სართ." }, "bbox": [ 44.7778273, 41.7223188, 44.7778273, 41.7223188 ], "geometry": { "type": "Point", "coordinates": [ 44.7778273, 41.7223188 ] } },
{ "type": "Feature", "properties": { "district": 3.0, "precinct": 49.0, "latitude": 41.751544511696402, "longitude": 44.763957560062401, "id": 3049.0, "name_ka": "ვაშლიჯვარი ვ.გოძიაშვილის 2 შეს. N21 I სართ." }, "bbox": [ 44.7639576, 41.7515445, 44.7639576, 41.7515445 ], "geometry": { "type": "Point", "coordinates": [ 44.7639576, 41.7515445 ] } },
{ "type": "Feature", "properties": { "district": 3.0, "precinct": 50.0, "latitude": 41.794424337132099, "longitude": 44.756798744201603, "id": 3050.0, "name_ka": "დ/დიღომი, ივანე პეტრიწის N15ა, I სართ." }, "bbox": [ 44.7567987, 41.7944243, 44.7567987, 41.7944243 ], "geometry": { "type": "Point", "coordinates": [ 44.7567987, 41.7944243 ] } },
{ "type": "Feature", "properties": { "district": 3.0, "precinct": 51.0, "latitude": 41.790676796504101, "longitude": 44.759271740913299, "id": 3051.0, "name_ka": "დ/დიღომი, ი. პეტრიწის N8ბ, I სართ." }, "bbox": [ 44.7592717, 41.7906768, 44.7592717, 41.7906768 ], "geometry": { "type": "Point", "coordinates": [ 44.7592717, 41.7906768 ] } },
{ "type": "Feature", "properties": { "district": 3.0, "precinct": 52.0, "latitude": 41.789792872918603, "longitude": 44.744369387626598, "id": 3052.0, "name_ka": "დ/დიღომი მე-3 მკრ., I სართ." }, "bbox": [ 44.7443694, 41.7897929, 44.7443694, 41.7897929 ], "geometry": { "type": "Point", "coordinates": [ 44.7443694, 41.7897929 ] } },
{ "type": "Feature", "properties": { "district": 3.0, "precinct": 53.0, "latitude": 41.793222200986897, "longitude": 44.742639367983898, "id": 3053.0, "name_ka": "დ/დიღომი მე-4 მკრ. I სართ." }, "bbox": [ 44.7426394, 41.7932222, 44.7426394, 41.7932222 ], "geometry": { "type": "Point", "coordinates": [ 44.7426394, 41.7932222 ] } },
{ "type": "Feature", "properties": { "district": 3.0, "precinct": 54.0, "latitude": 41.718575022974697, "longitude": 44.768525362014699, "id": 3054.0, "name_ka": "ზ. ფანასკერტელის ქ. N12, I სართ." }, "bbox": [ 44.7685254, 41.718575, 44.7685254, 41.718575 ], "geometry": { "type": "Point", "coordinates": [ 44.7685254, 41.718575 ] } },
{ "type": "Feature", "properties": { "district": 3.0, "precinct": 55.0, "latitude": 41.770509065796404, "longitude": 44.736419731348498, "id": 3055.0, "name_ka": "სოფ. დიღომი, დ. აღმაშენებლის ქ. N52" }, "bbox": [ 44.7364197, 41.7705091, 44.7364197, 41.7705091 ], "geometry": { "type": "Point", "coordinates": [ 44.7364197, 41.7705091 ] } },
{ "type": "Feature", "properties": { "district": 3.0, "precinct": 56.0, "latitude": 41.7709596053447, "longitude": 44.735791683197, "id": 3056.0, "name_ka": "სოფ. დიღომი, დ. სარაჯიშვილის N12, I სართ." }, "bbox": [ 44.7357917, 41.7709596, 44.7357917, 41.7709596 ], "geometry": { "type": "Point", "coordinates": [ 44.7357917, 41.7709596 ] } },
{ "type": "Feature", "properties": { "district": 3.0, "precinct": 57.0, "latitude": 41.7713036780941, "longitude": 44.735957980155902, "id": 3057.0, "name_ka": "სოფ. დიღომი, დ. სარაჯიშვილის N12, I სართ." }, "bbox": [ 44.735958, 41.7713037, 44.735958, 41.7713037 ], "geometry": { "type": "Point", "coordinates": [ 44.735958, 41.7713037 ] } },
{ "type": "Feature", "properties": { "district": 3.0, "precinct": 58.0, "latitude": 41.774012186335803, "longitude": 44.726827740669201, "id": 3058.0, "name_ka": "სოფ. დიღომი, დიდგორის N57, I სართ." }, "bbox": [ 44.7268277, 41.7740122, 44.7268277, 41.7740122 ], "geometry": { "type": "Point", "coordinates": [ 44.7268277, 41.7740122 ] } },
{ "type": "Feature", "properties": { "district": 3.0, "precinct": 59.0, "latitude": 41.770517509161103, "longitude": 44.7363898158073, "id": 3059.0, "name_ka": "სოფ. დიღომი, სარაჯიშვილის N9" }, "bbox": [ 44.7363898, 41.7705175, 44.7363898, 41.7705175 ], "geometry": { "type": "Point", "coordinates": [ 44.7363898, 41.7705175 ] } },
{ "type": "Feature", "properties": { "district": 3.0, "precinct": 60.0, "latitude": 41.726510703151803, "longitude": 44.750828146934502, "id": 3060.0, "name_ka": "ვ/ფშაველას გამზ. N33, I სართ." }, "bbox": [ 44.7508281, 41.7265107, 44.7508281, 41.7265107 ], "geometry": { "type": "Point", "coordinates": [ 44.7508281, 41.7265107 ] } },
{ "type": "Feature", "properties": { "district": 3.0, "precinct": 61.0, "latitude": 41.719616086314602, "longitude": 44.779500961303697, "id": 3061.0, "name_ka": "26 მაისის მოედანი N1, I სართ." }, "bbox": [ 44.779501, 41.7196161, 44.779501, 41.7196161 ], "geometry": { "type": "Point", "coordinates": [ 44.779501, 41.7196161 ] } },
{ "type": "Feature", "properties": { "district": 3.0, "precinct": 62.0, "latitude": 41.717786206059898, "longitude": 44.776593446731503, "id": 3062.0, "name_ka": "ვ. დოლიძის 3, I სართ." }, "bbox": [ 44.7765934, 41.7177862, 44.7765934, 41.7177862 ], "geometry": { "type": "Point", "coordinates": [ 44.7765934, 41.7177862 ] } },
{ "type": "Feature", "properties": { "district": 3.0, "precinct": 63.0, "latitude": 41.7147990248139, "longitude": 44.775638580322202, "id": 3063.0, "name_ka": "ჩიქოვანის ქ. N14, I სართ." }, "bbox": [ 44.7756386, 41.714799, 44.7756386, 41.714799 ], "geometry": { "type": "Point", "coordinates": [ 44.7756386, 41.714799 ] } },
{ "type": "Feature", "properties": { "district": 3.0, "precinct": 64.0, "latitude": 41.722779213758997, "longitude": 44.755784869194002, "id": 3064.0, "name_ka": "საირმის ქ. N55ა" }, "bbox": [ 44.7557849, 41.7227792, 44.7557849, 41.7227792 ], "geometry": { "type": "Point", "coordinates": [ 44.7557849, 41.7227792 ] } },
{ "type": "Feature", "properties": { "district": 3.0, "precinct": 65.0, "latitude": 41.725485766279597, "longitude": 44.754690527915898, "id": 3065.0, "name_ka": "ალ. ყაზბეგის გამზ. N27, I სართ." }, "bbox": [ 44.7546905, 41.7254858, 44.7546905, 41.7254858 ], "geometry": { "type": "Point", "coordinates": [ 44.7546905, 41.7254858 ] } },
{ "type": "Feature", "properties": { "district": 3.0, "precinct": 66.0, "latitude": 41.727190515493596, "longitude": 44.750958591612203, "id": 3066.0, "name_ka": "ვ/ფშაველას გამზ. N33, I სართ." }, "bbox": [ 44.7509586, 41.7271905, 44.7509586, 41.7271905 ], "geometry": { "type": "Point", "coordinates": [ 44.7509586, 41.7271905 ] } },
{ "type": "Feature", "properties": { "district": 3.0, "precinct": 67.0, "latitude": 41.730105059522003, "longitude": 44.754992633970602, "id": 3067.0, "name_ka": "შ. ნუცუბიძის ქ. N5, I სართ." }, "bbox": [ 44.7549926, 41.7301051, 44.7549926, 41.7301051 ], "geometry": { "type": "Point", "coordinates": [ 44.7549926, 41.7301051 ] } },
{ "type": "Feature", "properties": { "district": 3.0, "precinct": 68.0, "latitude": 41.733792889225398, "longitude": 44.768037199974003, "id": 3068.0, "name_ka": "ი. იმედაშვილის ქ. N4, I სართ." }, "bbox": [ 44.7680372, 41.7337929, 44.7680372, 41.7337929 ], "geometry": { "type": "Point", "coordinates": [ 44.7680372, 41.7337929 ] } },
{ "type": "Feature", "properties": { "district": 3.0, "precinct": 69.0, "latitude": 41.718759212332003, "longitude": 44.7582685947418, "id": 3069.0, "name_ka": "ბახტრიონის ქ. N41, I სართ." }, "bbox": [ 44.7582686, 41.7187592, 44.7582686, 41.7187592 ], "geometry": { "type": "Point", "coordinates": [ 44.7582686, 41.7187592 ] } },
{ "type": "Feature", "properties": { "district": 3.0, "precinct": 70.0, "latitude": 41.733488647288702, "longitude": 44.767758250236497, "id": 3070.0, "name_ka": "ი. იმედაშვილის ქ. N4, I სართ." }, "bbox": [ 44.7677583, 41.7334886, 44.7677583, 41.7334886 ], "geometry": { "type": "Point", "coordinates": [ 44.7677583, 41.7334886 ] } },
{ "type": "Feature", "properties": { "district": 3.0, "precinct": 71.0, "latitude": 41.725689954226297, "longitude": 44.7719049453735, "id": 3071.0, "name_ka": "თ. იოსებიძის ქ. N50, I სართ." }, "bbox": [ 44.7719049, 41.72569, 44.7719049, 41.72569 ], "geometry": { "type": "Point", "coordinates": [ 44.7719049, 41.72569 ] } },
{ "type": "Feature", "properties": { "district": 3.0, "precinct": 72.0, "latitude": 41.718971686265903, "longitude": 44.768375501852397, "id": 3072.0, "name_ka": "ზ. ფანასკერტელის ქ. N12, I სართ." }, "bbox": [ 44.7683755, 41.7189717, 44.7683755, 41.7189717 ], "geometry": { "type": "Point", "coordinates": [ 44.7683755, 41.7189717 ] } },
{ "type": "Feature", "properties": { "district": 3.0, "precinct": 73.0, "latitude": 41.791084757124999, "longitude": 44.7593736648559, "id": 3073.0, "name_ka": "დ/დიღომი, პეტრიწის N8ბ, I სართ." }, "bbox": [ 44.7593737, 41.7910848, 44.7593737, 41.7910848 ], "geometry": { "type": "Point", "coordinates": [ 44.7593737, 41.7910848 ] } },
{ "type": "Feature", "properties": { "district": 3.0, "precinct": 74.0, "latitude": 41.794682298131299, "longitude": 44.756398615869102, "id": 3074.0, "name_ka": "დ/დიღომი, ი. პეტრიწის N15 ა, I სართ." }, "bbox": [ 44.7563986, 41.7946823, 44.7563986, 41.7946823 ], "geometry": { "type": "Point", "coordinates": [ 44.7563986, 41.7946823 ] } },
{ "type": "Feature", "properties": { "district": 3.0, "precinct": 75.0, "latitude": 41.794079716496597, "longitude": 44.743304817721501, "id": 3075.0, "name_ka": "დ/დიღომი მე-4 მკრ. I სართ." }, "bbox": [ 44.7433048, 41.7940797, 44.7433048, 41.7940797 ], "geometry": { "type": "Point", "coordinates": [ 44.7433048, 41.7940797 ] } },
{ "type": "Feature", "properties": { "district": 3.0, "precinct": 76.0, "latitude": 41.789520893978697, "longitude": 44.744117259979198, "id": 3076.0, "name_ka": "დ/დიღომი მე-3 მკრ., I სართ." }, "bbox": [ 44.7441173, 41.7895209, 44.7441173, 41.7895209 ], "geometry": { "type": "Point", "coordinates": [ 44.7441173, 41.7895209 ] } },
{ "type": "Feature", "properties": { "district": 3.0, "precinct": 77.0, "latitude": 41.718839294496597, "longitude": 44.767323732376099, "id": 3077.0, "name_ka": "ზ. ფანასკერტელის ქ. N14, I სართ." }, "bbox": [ 44.7673237, 41.7188393, 44.7673237, 41.7188393 ], "geometry": { "type": "Point", "coordinates": [ 44.7673237, 41.7188393 ] } },
{ "type": "Feature", "properties": { "district": 3.0, "precinct": 78.0, "latitude": 41.7252863, "longitude": 44.7737819, "id": 3078.0, "name_ka": "ა. ქუთათელის ქ. N3, I სართ." }, "bbox": [ 44.7737819, 41.7252863, 44.7737819, 41.7252863 ], "geometry": { "type": "Point", "coordinates": [ 44.7737819, 41.7252863 ] } },
{ "type": "Feature", "properties": { "district": 3.0, "precinct": 79.0, "latitude": 41.724612955584398, "longitude": 44.747153520584099, "id": 3079.0, "name_ka": "ალ.ყაზბეგის გამზ. N39, I სართ." }, "bbox": [ 44.7471535, 41.724613, 44.7471535, 41.724613 ], "geometry": { "type": "Point", "coordinates": [ 44.7471535, 41.724613 ] } },
{ "type": "Feature", "properties": { "district": 3.0, "precinct": 80.0, "latitude": 41.8117904, "longitude": 44.7832202, "id": 3080.0, "name_ka": "დ. აღმაშენებლის ხეივანი მე-14 კმ. I სართ." }, "bbox": [ 44.7832202, 41.8117904, 44.7832202, 41.8117904 ], "geometry": { "type": "Point", "coordinates": [ 44.7832202, 41.8117904 ] } },
{ "type": "Feature", "properties": { "district": 3.0, "precinct": 81.0, "latitude": 41.721990800171, "longitude": 44.757260982840599, "id": 3081.0, "name_ka": "საირმის ქ. N84, I სართ." }, "bbox": [ 44.757261, 41.7219908, 44.757261, 41.7219908 ], "geometry": { "type": "Point", "coordinates": [ 44.757261, 41.7219908 ] } },
{ "type": "Feature", "properties": { "district": 3.0, "precinct": 82.0, "latitude": 41.719712632750401, "longitude": 44.779608138953698, "id": 3082.0, "name_ka": "26 მაისის მოედანი N1, I სართ." }, "bbox": [ 44.7796081, 41.7197126, 44.7796081, 41.7197126 ], "geometry": { "type": "Point", "coordinates": [ 44.7796081, 41.7197126 ] } },
{ "type": "Feature", "properties": { "district": 3.0, "precinct": 83.0, "latitude": 41.714779003023502, "longitude": 44.769249558448699, "id": 3083.0, "name_ka": "ს. ჩიქოვანის ქ. N26, II სართ." }, "bbox": [ 44.7692496, 41.714779, 44.7692496, 41.714779 ], "geometry": { "type": "Point", "coordinates": [ 44.7692496, 41.714779 ] } },
{ "type": "Feature", "properties": { "district": 3.0, "precinct": 84.0, "latitude": 41.730244466061997, "longitude": 44.756615364418003, "id": 3084.0, "name_ka": "შ. ნუცუბიძის ქ. N5" }, "bbox": [ 44.7566154, 41.7302445, 44.7566154, 41.7302445 ], "geometry": { "type": "Point", "coordinates": [ 44.7566154, 41.7302445 ] } },
{ "type": "Feature", "properties": { "district": 3.0, "precinct": 85.0, "latitude": 41.7300057750817, "longitude": 44.755371809005702, "id": 3085.0, "name_ka": "შ. ნუცუბიძის ქ. N5, I სართ." }, "bbox": [ 44.7553718, 41.7300058, 44.7553718, 41.7300058 ], "geometry": { "type": "Point", "coordinates": [ 44.7553718, 41.7300058 ] } },
{ "type": "Feature", "properties": { "district": 3.0, "precinct": 86.0, "latitude": 41.771111342531199, "longitude": 44.736321710498501, "id": 3086.0, "name_ka": "სოფ. დიღომი, დ. სარაჯიშვილის N12, I სართ." }, "bbox": [ 44.7363217, 41.7711113, 44.7363217, 41.7711113 ], "geometry": { "type": "Point", "coordinates": [ 44.7363217, 41.7711113 ] } },
{ "type": "Feature", "properties": { "district": 3.0, "precinct": 87.0, "latitude": 41.752317601066402, "longitude": 44.7639382433481, "id": 3087.0, "name_ka": "ვაშლიჯვარი. ვ.გოძიაშვილის 2 შეს. N21, I სართ." }, "bbox": [ 44.7639382, 41.7523176, 44.7639382, 41.7523176 ], "geometry": { "type": "Point", "coordinates": [ 44.7639382, 41.7523176 ] } },
{ "type": "Feature", "properties": { "district": 3.0, "precinct": 88.0, "latitude": 41.727775837055603, "longitude": 44.7722536325454, "id": 3088.0, "name_ka": "ჟ. შარტავას ქ. N20, I სართ." }, "bbox": [ 44.7722536, 41.7277758, 44.7722536, 41.7277758 ], "geometry": { "type": "Point", "coordinates": [ 44.7722536, 41.7277758 ] } },
{ "type": "Feature", "properties": { "district": 3.0, "precinct": 89.0, "latitude": 41.812017, "longitude": 44.782957, "id": 3089.0, "name_ka": "დ. აღმაშენებლის ხეივანი მე-14 კმ. I სართ." }, "bbox": [ 44.782957, 41.812017, 44.782957, 41.812017 ], "geometry": { "type": "Point", "coordinates": [ 44.782957, 41.812017 ] } },
{ "type": "Feature", "properties": { "district": 3.0, "precinct": 90.0, "latitude": 41.787316495946399, "longitude": 44.761871417161899, "id": 3090.0, "name_ka": "დ/დიღომი, მეფე მირიანის ქ. N6, I სართ." }, "bbox": [ 44.7618714, 41.7873165, 44.7618714, 41.7873165 ], "geometry": { "type": "Point", "coordinates": [ 44.7618714, 41.7873165 ] } },
{ "type": "Feature", "properties": { "district": 3.0, "precinct": 91.0, "latitude": 41.787343021000602, "longitude": 44.761876165866802, "id": 3091.0, "name_ka": "დ/დიღომი, მეფე მირიანის ქ. N6, I სართ." }, "bbox": [ 44.7618762, 41.787343, 44.7618762, 41.787343 ], "geometry": { "type": "Point", "coordinates": [ 44.7618762, 41.787343 ] } },
{ "type": "Feature", "properties": { "district": 3.0, "precinct": 92.0, "latitude": 41.788942305351902, "longitude": 44.735759985495498, "id": 3092.0, "name_ka": "კრისტოფერო კასტელის N9 1 სართ." }, "bbox": [ 44.73576, 41.7889423, 44.73576, 41.7889423 ], "geometry": { "type": "Point", "coordinates": [ 44.73576, 41.7889423 ] } },
{ "type": "Feature", "properties": { "district": 3.0, "precinct": 93.0, "latitude": 41.751632557117397, "longitude": 44.763895869255002, "id": 3093.0, "name_ka": "ვაშლიჯვარი. ვ. გოძიაშვილის 2 შეს.N21 I სართ." }, "bbox": [ 44.7638959, 41.7516326, 44.7638959, 41.7516326 ], "geometry": { "type": "Point", "coordinates": [ 44.7638959, 41.7516326 ] } },
{ "type": "Feature", "properties": { "district": 3.0, "precinct": 94.0, "latitude": 41.724559567799098, "longitude": 44.746818667682803, "id": 3094.0, "name_ka": "ალ.ყაზბეგის გამზ. N39, I სართ." }, "bbox": [ 44.7468187, 41.7245596, 44.7468187, 41.7245596 ], "geometry": { "type": "Point", "coordinates": [ 44.7468187, 41.7245596 ] } },
{ "type": "Feature", "properties": { "district": 3.0, "precinct": 95.0, "latitude": 41.7300625326356, "longitude": 44.755672595870898, "id": 3095.0, "name_ka": "შ. ნუცუბიძის ქ. N5, I სართ." }, "bbox": [ 44.7556726, 41.7300625, 44.7556726, 41.7300625 ], "geometry": { "type": "Point", "coordinates": [ 44.7556726, 41.7300625 ] } },
{ "type": "Feature", "properties": { "district": 3.0, "precinct": 96.0, "latitude": 41.790809016866199, "longitude": 44.759597699746202, "id": 3096.0, "name_ka": "დ/დიღომი, პეტრიწის N8ბ, I სართ." }, "bbox": [ 44.7595977, 41.790809, 44.7595977, 41.790809 ], "geometry": { "type": "Point", "coordinates": [ 44.7595977, 41.790809 ] } },
{ "type": "Feature", "properties": { "district": 3.0, "precinct": 97.0, "latitude": 41.793191658775598, "longitude": 44.742746693502802, "id": 3097.0, "name_ka": "დ/დიღომი მე-4 მკრ. I სართ." }, "bbox": [ 44.7427467, 41.7931917, 44.7427467, 41.7931917 ], "geometry": { "type": "Point", "coordinates": [ 44.7427467, 41.7931917 ] } },
{ "type": "Feature", "properties": { "district": 4.0, "precinct": 2.0, "latitude": 41.6954614691061, "longitude": 44.805006225131201, "id": 4002.0, "name_ka": "ი.და ნ.ნაკაშიძეების ქ. #26" }, "bbox": [ 44.8050062, 41.6954615, 44.8050062, 41.6954615 ], "geometry": { "type": "Point", "coordinates": [ 44.8050062, 41.6954615 ] } },
{ "type": "Feature", "properties": { "district": 4.0, "precinct": 3.0, "latitude": 41.693214161146898, "longitude": 44.804655143551201, "id": 4003.0, "name_ka": "კ.აფხაზის ქ.#25" }, "bbox": [ 44.8046551, 41.6932142, 44.8046551, 41.6932142 ], "geometry": { "type": "Point", "coordinates": [ 44.8046551, 41.6932142 ] } },
{ "type": "Feature", "properties": { "district": 4.0, "precinct": 4.0, "latitude": 41.693216957030103, "longitude": 44.804651741278001, "id": 4004.0, "name_ka": "კ.აფხაზის ქ.#25" }, "bbox": [ 44.8046517, 41.693217, 44.8046517, 41.693217 ], "geometry": { "type": "Point", "coordinates": [ 44.8046517, 41.693217 ] } },
{ "type": "Feature", "properties": { "district": 4.0, "precinct": 5.0, "latitude": 41.6894844643992, "longitude": 44.802128569311499, "id": 4005.0, "name_ka": "ასათიანის ქ.#28" }, "bbox": [ 44.8021286, 41.6894845, 44.8021286, 41.6894845 ], "geometry": { "type": "Point", "coordinates": [ 44.8021286, 41.6894845 ] } },
{ "type": "Feature", "properties": { "district": 4.0, "precinct": 6.0, "latitude": 41.691182712904499, "longitude": 44.802746570569603, "id": 4006.0, "name_ka": "ლერმონტოვის ქ.#4" }, "bbox": [ 44.8027466, 41.6911827, 44.8027466, 41.6911827 ], "geometry": { "type": "Point", "coordinates": [ 44.8027466, 41.6911827 ] } },
{ "type": "Feature", "properties": { "district": 4.0, "precinct": 7.0, "latitude": 41.689461259923299, "longitude": 44.809740843585899, "id": 4007.0, "name_ka": "გორგასლის ქ.#1" }, "bbox": [ 44.8097408, 41.6894613, 44.8097408, 41.6894613 ], "geometry": { "type": "Point", "coordinates": [ 44.8097408, 41.6894613 ] } },
{ "type": "Feature", "properties": { "district": 4.0, "precinct": 8.0, "latitude": 41.686459369744803, "longitude": 44.816092897063001, "id": 4008.0, "name_ka": "გრიშაშვილის ქ.#41" }, "bbox": [ 44.8160929, 41.6864594, 44.8160929, 41.6864594 ], "geometry": { "type": "Point", "coordinates": [ 44.8160929, 41.6864594 ] } },
{ "type": "Feature", "properties": { "district": 4.0, "precinct": 9.0, "latitude": 41.686264496438199, "longitude": 44.8187908171966, "id": 4009.0, "name_ka": "გრიშაშვილის ქ.#54" }, "bbox": [ 44.8187908, 41.6862645, 44.8187908, 41.6862645 ], "geometry": { "type": "Point", "coordinates": [ 44.8187908, 41.6862645 ] } },
{ "type": "Feature", "properties": { "district": 4.0, "precinct": 10.0, "latitude": 41.686035965986697, "longitude": 44.818703949737497, "id": 4010.0, "name_ka": "გრიშაშვილის ქ.#54" }, "bbox": [ 44.8187039, 41.686036, 44.8187039, 41.686036 ], "geometry": { "type": "Point", "coordinates": [ 44.8187039, 41.686036 ] } },
{ "type": "Feature", "properties": { "district": 4.0, "precinct": 11.0, "latitude": 41.681967603994302, "longitude": 44.8244959558197, "id": 4011.0, "name_ka": "გორგასლის ქ.#2" }, "bbox": [ 44.824496, 41.6819676, 44.824496, 41.6819676 ], "geometry": { "type": "Point", "coordinates": [ 44.824496, 41.6819676 ] } },
{ "type": "Feature", "properties": { "district": 4.0, "precinct": 12.0, "latitude": 41.680467937402803, "longitude": 44.823789371827701, "id": 4012.0, "name_ka": "გორგასლის ქ.#43" }, "bbox": [ 44.8237894, 41.6804679, 44.8237894, 41.6804679 ], "geometry": { "type": "Point", "coordinates": [ 44.8237894, 41.6804679 ] } },
{ "type": "Feature", "properties": { "district": 4.0, "precinct": 13.0, "latitude": 41.6780274, "longitude": 44.8222425, "id": 4013.0, "name_ka": "ორთაჭალის ქ.#8" }, "bbox": [ 44.8222425, 41.6780274, 44.8222425, 41.6780274 ], "geometry": { "type": "Point", "coordinates": [ 44.8222425, 41.6780274 ] } },
{ "type": "Feature", "properties": { "district": 4.0, "precinct": 14.0, "latitude": 41.673475336937102, "longitude": 44.823439546356902, "id": 4014.0, "name_ka": "გორგასლის შეს.#75" }, "bbox": [ 44.8234395, 41.6734753, 44.8234395, 41.6734753 ], "geometry": { "type": "Point", "coordinates": [ 44.8234395, 41.6734753 ] } },
{ "type": "Feature", "properties": { "district": 4.0, "precinct": 15.0, "latitude": 41.673467332996502, "longitude": 44.822912778434699, "id": 4015.0, "name_ka": "გორგასლის შეს.#75" }, "bbox": [ 44.8229128, 41.6734673, 44.8229128, 41.6734673 ], "geometry": { "type": "Point", "coordinates": [ 44.8229128, 41.6734673 ] } },
{ "type": "Feature", "properties": { "district": 4.0, "precinct": 16.0, "latitude": 41.680270282603601, "longitude": 44.823555813600102, "id": 4016.0, "name_ka": "გორგასლის ქ.#43" }, "bbox": [ 44.8235558, 41.6802703, 44.8235558, 41.6802703 ], "geometry": { "type": "Point", "coordinates": [ 44.8235558, 41.6802703 ] } },
{ "type": "Feature", "properties": { "district": 4.0, "precinct": 17.0, "latitude": 41.669593966231901, "longitude": 44.846250414848299, "id": 4017.0, "name_ka": "გორგასალის ქ.#111" }, "bbox": [ 44.8462504, 41.669594, 44.8462504, 41.669594 ], "geometry": { "type": "Point", "coordinates": [ 44.8462504, 41.669594 ] } },
{ "type": "Feature", "properties": { "district": 4.0, "precinct": 18.0, "latitude": 41.656917730705402, "longitude": 44.897678782803297, "id": 4018.0, "name_ka": "რუსთავის გზატკეცილი#18" }, "bbox": [ 44.8976788, 41.6569177, 44.8976788, 41.6569177 ], "geometry": { "type": "Point", "coordinates": [ 44.8976788, 41.6569177 ] } },
{ "type": "Feature", "properties": { "district": 4.0, "precinct": 19.0, "latitude": 41.651573483907498, "longitude": 44.907884902446703, "id": 4019.0, "name_ka": "რუსთავის გზატკეცილი #30" }, "bbox": [ 44.9078849, 41.6515735, 44.9078849, 41.6515735 ], "geometry": { "type": "Point", "coordinates": [ 44.9078849, 41.6515735 ] } },
{ "type": "Feature", "properties": { "district": 4.0, "precinct": 20.0, "latitude": 41.648536013421001, "longitude": 44.909391134254498, "id": 4020.0, "name_ka": "რუსთავის გზატკეცილი #42" }, "bbox": [ 44.9093911, 41.648536, 44.9093911, 41.648536 ], "geometry": { "type": "Point", "coordinates": [ 44.9093911, 41.648536 ] } },
{ "type": "Feature", "properties": { "district": 4.0, "precinct": 21.0, "latitude": 41.644532276518902, "longitude": 44.909125257672102, "id": 4021.0, "name_ka": "სადგურის შეს.# 3" }, "bbox": [ 44.9091253, 41.6445323, 44.9091253, 41.6445323 ], "geometry": { "type": "Point", "coordinates": [ 44.9091253, 41.6445323 ] } },
{ "type": "Feature", "properties": { "district": 4.0, "precinct": 22.0, "latitude": 41.643855242386898, "longitude": 44.909125303704798, "id": 4022.0, "name_ka": "სადგურის ქ.#25" }, "bbox": [ 44.9091253, 41.6438552, 44.9091253, 41.6438552 ], "geometry": { "type": "Point", "coordinates": [ 44.9091253, 41.6438552 ] } },
{ "type": "Feature", "properties": { "district": 4.0, "precinct": 23.0, "latitude": 41.643714182233303, "longitude": 44.909110095631299, "id": 4023.0, "name_ka": "სადგურის ქ.#25" }, "bbox": [ 44.9091101, 41.6437142, 44.9091101, 41.6437142 ], "geometry": { "type": "Point", "coordinates": [ 44.9091101, 41.6437142 ] } },
{ "type": "Feature", "properties": { "district": 4.0, "precinct": 24.0, "latitude": 41.644601842169699, "longitude": 44.897057599652797, "id": 4024.0, "name_ka": "ფონიჭალა 3" }, "bbox": [ 44.8970576, 41.6446018, 44.8970576, 41.6446018 ], "geometry": { "type": "Point", "coordinates": [ 44.8970576, 41.6446018 ] } },
{ "type": "Feature", "properties": { "district": 4.0, "precinct": 25.0, "latitude": 41.644281462077302, "longitude": 44.899707555819703, "id": 4025.0, "name_ka": "ფონიჭალა 3" }, "bbox": [ 44.8997076, 41.6442815, 44.8997076, 41.6442815 ], "geometry": { "type": "Point", "coordinates": [ 44.8997076, 41.6442815 ] } },
{ "type": "Feature", "properties": { "district": 4.0, "precinct": 26.0, "latitude": 41.644281462077302, "longitude": 44.899707555819703, "id": 4026.0, "name_ka": "ფონიჭალა 3" }, "bbox": [ 44.8997076, 41.6442815, 44.8997076, 41.6442815 ], "geometry": { "type": "Point", "coordinates": [ 44.8997076, 41.6442815 ] } },
{ "type": "Feature", "properties": { "district": 4.0, "precinct": 27.0, "latitude": 41.643851523619396, "longitude": 44.8976832190491, "id": 4027.0, "name_ka": "ფონიჭალა 3" }, "bbox": [ 44.8976832, 41.6438515, 44.8976832, 41.6438515 ], "geometry": { "type": "Point", "coordinates": [ 44.8976832, 41.6438515 ] } },
{ "type": "Feature", "properties": { "district": 4.0, "precinct": 28.0, "latitude": 41.6438919, "longitude": 44.8983683, "id": 4028.0, "name_ka": "ფონიჭალა 3" }, "bbox": [ 44.8983683, 41.6438919, 44.8983683, 41.6438919 ], "geometry": { "type": "Point", "coordinates": [ 44.8983683, 41.6438919 ] } },
{ "type": "Feature", "properties": { "district": 4.0, "precinct": 29.0, "latitude": 41.6403265301782, "longitude": 44.915580314155498, "id": 4029.0, "name_ka": "სოფ.ფონიჭალა" }, "bbox": [ 44.9155803, 41.6403265, 44.9155803, 41.6403265 ], "geometry": { "type": "Point", "coordinates": [ 44.9155803, 41.6403265 ] } },
{ "type": "Feature", "properties": { "district": 4.0, "precinct": 30.0, "latitude": 41.640117521933497, "longitude": 44.915343495106498, "id": 4030.0, "name_ka": "სოფ.ფონიჭალა" }, "bbox": [ 44.9153435, 41.6401175, 44.9153435, 41.6401175 ], "geometry": { "type": "Point", "coordinates": [ 44.9153435, 41.6401175 ] } },
{ "type": "Feature", "properties": { "district": 4.0, "precinct": 31.0, "latitude": 41.640323138139003, "longitude": 44.915921075917097, "id": 4031.0, "name_ka": "სოფ.ფონიჭალა" }, "bbox": [ 44.9159211, 41.6403231, 44.9159211, 41.6403231 ], "geometry": { "type": "Point", "coordinates": [ 44.9159211, 41.6403231 ] } },
{ "type": "Feature", "properties": { "district": 4.0, "precinct": 32.0, "latitude": 41.682232605252402, "longitude": 44.824390594442697, "id": 4032.0, "name_ka": "გორგასლის ქ.#2" }, "bbox": [ 44.8243906, 41.6822326, 44.8243906, 41.6822326 ], "geometry": { "type": "Point", "coordinates": [ 44.8243906, 41.6822326 ] } },
{ "type": "Feature", "properties": { "district": 5.0, "precinct": 1.0, "latitude": 41.704399519882202, "longitude": 44.824058279268797, "id": 5001.0, "name_ka": "თამაზ მუჯირიშვილის 12" }, "bbox": [ 44.8240583, 41.7043995, 44.8240583, 41.7043995 ], "geometry": { "type": "Point", "coordinates": [ 44.8240583, 41.7043995 ] } },
{ "type": "Feature", "properties": { "district": 5.0, "precinct": 2.0, "latitude": 41.702126243555398, "longitude": 44.821498455819601, "id": 5002.0, "name_ka": "ბეღლეთის ქ. N12" }, "bbox": [ 44.8214985, 41.7021262, 44.8214985, 41.7021262 ], "geometry": { "type": "Point", "coordinates": [ 44.8214985, 41.7021262 ] } },
{ "type": "Feature", "properties": { "district": 5.0, "precinct": 3.0, "latitude": 41.699872941477999, "longitude": 44.819808849570201, "id": 5003.0, "name_ka": "ბეღლეთის ქ. N12" }, "bbox": [ 44.8198088, 41.6998729, 44.8198088, 41.6998729 ], "geometry": { "type": "Point", "coordinates": [ 44.8198088, 41.6998729 ] } },
{ "type": "Feature", "properties": { "district": 5.0, "precinct": 4.0, "latitude": 41.699853761491603, "longitude": 44.819819363684701, "id": 5004.0, "name_ka": "ბეღლეთის ქ. N12" }, "bbox": [ 44.8198194, 41.6998538, 44.8198194, 41.6998538 ], "geometry": { "type": "Point", "coordinates": [ 44.8198194, 41.6998538 ] } },
{ "type": "Feature", "properties": { "district": 5.0, "precinct": 5.0, "latitude": 41.694177474462201, "longitude": 44.819718397337297, "id": 5005.0, "name_ka": "მარტყოფის 9" }, "bbox": [ 44.8197184, 41.6941775, 44.8197184, 41.6941775 ], "geometry": { "type": "Point", "coordinates": [ 44.8197184, 41.6941775 ] } },
{ "type": "Feature", "properties": { "district": 5.0, "precinct": 6.0, "latitude": 41.6941468, "longitude": 44.8199843, "id": 5006.0, "name_ka": "მარტყოფის 9" }, "bbox": [ 44.8199843, 41.6941468, 44.8199843, 41.6941468 ], "geometry": { "type": "Point", "coordinates": [ 44.8199843, 41.6941468 ] } },
{ "type": "Feature", "properties": { "district": 5.0, "precinct": 7.0, "latitude": 41.6931778, "longitude": 44.8195167, "id": 5007.0, "name_ka": "ირბახის 16" }, "bbox": [ 44.8195167, 41.6931778, 44.8195167, 41.6931778 ], "geometry": { "type": "Point", "coordinates": [ 44.8195167, 41.6931778 ] } },
{ "type": "Feature", "properties": { "district": 5.0, "precinct": 8.0, "latitude": 41.6905092, "longitude": 44.8174216, "id": 5008.0, "name_ka": "ქ. წამებულის 23" }, "bbox": [ 44.8174216, 41.6905092, 44.8174216, 41.6905092 ], "geometry": { "type": "Point", "coordinates": [ 44.8174216, 41.6905092 ] } },
{ "type": "Feature", "properties": { "district": 5.0, "precinct": 9.0, "latitude": 41.693134550993499, "longitude": 44.819208333304402, "id": 5009.0, "name_ka": "ირბახის 16" }, "bbox": [ 44.8192083, 41.6931346, 44.8192083, 41.6931346 ], "geometry": { "type": "Point", "coordinates": [ 44.8192083, 41.6931346 ] } },
{ "type": "Feature", "properties": { "district": 5.0, "precinct": 10.0, "latitude": 41.693164956394199, "longitude": 44.819358587265, "id": 5010.0, "name_ka": "ირბახის 16" }, "bbox": [ 44.8193586, 41.693165, 44.8193586, 41.693165 ], "geometry": { "type": "Point", "coordinates": [ 44.8193586, 41.693165 ] } },
{ "type": "Feature", "properties": { "district": 5.0, "precinct": 11.0, "latitude": 41.693159840142997, "longitude": 44.823532104492102, "id": 5011.0, "name_ka": "წურწუმიას 16" }, "bbox": [ 44.8235321, 41.6931598, 44.8235321, 41.6931598 ], "geometry": { "type": "Point", "coordinates": [ 44.8235321, 41.6931598 ] } },
{ "type": "Feature", "properties": { "district": 5.0, "precinct": 12.0, "latitude": 41.690579112717501, "longitude": 44.819365292787502, "id": 5012.0, "name_ka": "იზაშვილის ქ. N 5" }, "bbox": [ 44.8193653, 41.6905791, 44.8193653, 41.6905791 ], "geometry": { "type": "Point", "coordinates": [ 44.8193653, 41.6905791 ] } },
{ "type": "Feature", "properties": { "district": 5.0, "precinct": 13.0, "latitude": 41.6876184, "longitude": 44.824282, "id": 5013.0, "name_ka": "ქ. წამებულის 40" }, "bbox": [ 44.824282, 41.6876184, 44.824282, 41.6876184 ], "geometry": { "type": "Point", "coordinates": [ 44.824282, 41.6876184 ] } },
{ "type": "Feature", "properties": { "district": 5.0, "precinct": 14.0, "latitude": 41.689781217521798, "longitude": 44.827693218352302, "id": 5014.0, "name_ka": "წინანდლის 9" }, "bbox": [ 44.8276932, 41.6897812, 44.8276932, 41.6897812 ], "geometry": { "type": "Point", "coordinates": [ 44.8276932, 41.6897812 ] } },
{ "type": "Feature", "properties": { "district": 5.0, "precinct": 15.0, "latitude": 41.6860946, "longitude": 44.8289239, "id": 5015.0, "name_ka": "ბოჭორმის 23" }, "bbox": [ 44.8289239, 41.6860946, 44.8289239, 41.6860946 ], "geometry": { "type": "Point", "coordinates": [ 44.8289239, 41.6860946 ] } },
{ "type": "Feature", "properties": { "district": 5.0, "precinct": 16.0, "latitude": 41.686966941872399, "longitude": 44.830279067560298, "id": 5016.0, "name_ka": "ქეთევან წამებულის 57" }, "bbox": [ 44.8302791, 41.6869669, 44.8302791, 41.6869669 ], "geometry": { "type": "Point", "coordinates": [ 44.8302791, 41.6869669 ] } },
{ "type": "Feature", "properties": { "district": 5.0, "precinct": 17.0, "latitude": 41.686950697231403, "longitude": 44.836717844009399, "id": 5017.0, "name_ka": "ქ. წამებულის 90" }, "bbox": [ 44.8367178, 41.6869507, 44.8367178, 41.6869507 ], "geometry": { "type": "Point", "coordinates": [ 44.8367178, 41.6869507 ] } },
{ "type": "Feature", "properties": { "district": 5.0, "precinct": 18.0, "latitude": 41.687086904214503, "longitude": 44.8367822170257, "id": 5018.0, "name_ka": "ქ. წამებულის 90" }, "bbox": [ 44.8367822, 41.6870869, 44.8367822, 41.6870869 ], "geometry": { "type": "Point", "coordinates": [ 44.8367822, 41.6870869 ] } },
{ "type": "Feature", "properties": { "district": 5.0, "precinct": 19.0, "latitude": 41.687058861623903, "longitude": 44.836803674697798, "id": 5019.0, "name_ka": "ქ. წამებულის 90" }, "bbox": [ 44.8368037, 41.6870589, 44.8368037, 41.6870589 ], "geometry": { "type": "Point", "coordinates": [ 44.8368037, 41.6870589 ] } },
{ "type": "Feature", "properties": { "district": 5.0, "precinct": 20.0, "latitude": 41.6865171, "longitude": 44.8340924, "id": 5020.0, "name_ka": "პატარძეულის 1" }, "bbox": [ 44.8340924, 41.6865171, 44.8340924, 41.6865171 ], "geometry": { "type": "Point", "coordinates": [ 44.8340924, 41.6865171 ] } },
{ "type": "Feature", "properties": { "district": 5.0, "precinct": 21.0, "latitude": 41.676357718139499, "longitude": 44.840387105941701, "id": 5021.0, "name_ka": "გაბრიელ სალოსის 1" }, "bbox": [ 44.8403871, 41.6763577, 44.8403871, 41.6763577 ], "geometry": { "type": "Point", "coordinates": [ 44.8403871, 41.6763577 ] } },
{ "type": "Feature", "properties": { "district": 5.0, "precinct": 22.0, "latitude": 41.6760242, "longitude": 44.8412034, "id": 5022.0, "name_ka": "გაბრიელ სალოსის 1" }, "bbox": [ 44.8412034, 41.6760242, 44.8412034, 41.6760242 ], "geometry": { "type": "Point", "coordinates": [ 44.8412034, 41.6760242 ] } },
{ "type": "Feature", "properties": { "district": 5.0, "precinct": 23.0, "latitude": 41.677435525269999, "longitude": 44.840580224990802, "id": 5023.0, "name_ka": "ჩკალოვის 3" }, "bbox": [ 44.8405802, 41.6774355, 44.8405802, 41.6774355 ], "geometry": { "type": "Point", "coordinates": [ 44.8405802, 41.6774355 ] } },
{ "type": "Feature", "properties": { "district": 5.0, "precinct": 24.0, "latitude": 41.677555725689899, "longitude": 44.840623140334998, "id": 5024.0, "name_ka": "ჩკალოვის 3" }, "bbox": [ 44.8406231, 41.6775557, 44.8406231, 41.6775557 ], "geometry": { "type": "Point", "coordinates": [ 44.8406231, 41.6775557 ] } },
{ "type": "Feature", "properties": { "district": 5.0, "precinct": 25.0, "latitude": 41.677555725689899, "longitude": 44.840590953826897, "id": 5025.0, "name_ka": "ჩკალოვის 3" }, "bbox": [ 44.840591, 41.6775557, 44.840591, 41.6775557 ], "geometry": { "type": "Point", "coordinates": [ 44.840591, 41.6775557 ] } },
{ "type": "Feature", "properties": { "district": 5.0, "precinct": 26.0, "latitude": 41.676393778893001, "longitude": 44.851239323615999, "id": 5026.0, "name_ka": "დიდგორის 1" }, "bbox": [ 44.8512393, 41.6763938, 44.8512393, 41.6763938 ], "geometry": { "type": "Point", "coordinates": [ 44.8512393, 41.6763938 ] } },
{ "type": "Feature", "properties": { "district": 5.0, "precinct": 27.0, "latitude": 41.6768641, "longitude": 44.84997, "id": 5027.0, "name_ka": "გაბრიელ სალოსის 1-ლი შეს #2" }, "bbox": [ 44.84997, 41.6768641, 44.84997, 41.6768641 ], "geometry": { "type": "Point", "coordinates": [ 44.84997, 41.6768641 ] } },
{ "type": "Feature", "properties": { "district": 5.0, "precinct": 28.0, "latitude": 41.6763635, "longitude": 44.8511596, "id": 5028.0, "name_ka": "დიდგორის 1" }, "bbox": [ 44.8511596, 41.6763635, 44.8511596, 41.6763635 ], "geometry": { "type": "Point", "coordinates": [ 44.8511596, 41.6763635 ] } },
{ "type": "Feature", "properties": { "district": 5.0, "precinct": 29.0, "latitude": 41.680381705016501, "longitude": 44.868907709012298, "id": 5029.0, "name_ka": "მოსკოვის გამზ. 23" }, "bbox": [ 44.8689077, 41.6803817, 44.8689077, 41.6803817 ], "geometry": { "type": "Point", "coordinates": [ 44.8689077, 41.6803817 ] } },
{ "type": "Feature", "properties": { "district": 5.0, "precinct": 30.0, "latitude": 41.672880070084602, "longitude": 44.858797613711303, "id": 5030.0, "name_ka": "ბოგდან ხმელნიცკის 61" }, "bbox": [ 44.8587976, 41.6728801, 44.8587976, 41.6728801 ], "geometry": { "type": "Point", "coordinates": [ 44.8587976, 41.6728801 ] } },
{ "type": "Feature", "properties": { "district": 5.0, "precinct": 31.0, "latitude": 41.672820191844202, "longitude": 44.8587442813594, "id": 5031.0, "name_ka": "ბოგდან ხმელნიცკის 61" }, "bbox": [ 44.8587443, 41.6728202, 44.8587443, 41.6728202 ], "geometry": { "type": "Point", "coordinates": [ 44.8587443, 41.6728202 ] } },
{ "type": "Feature", "properties": { "district": 5.0, "precinct": 32.0, "latitude": 41.6729691, "longitude": 44.8586195, "id": 5032.0, "name_ka": "ბოგდან ხმელნიცკის 61" }, "bbox": [ 44.8586195, 41.6729691, 44.8586195, 41.6729691 ], "geometry": { "type": "Point", "coordinates": [ 44.8586195, 41.6729691 ] } },
{ "type": "Feature", "properties": { "district": 5.0, "precinct": 33.0, "latitude": 41.672844988140703, "longitude": 44.858818639239502, "id": 5033.0, "name_ka": "ბოგდან ხმელნიცკის 61" }, "bbox": [ 44.8588186, 41.672845, 44.8588186, 41.672845 ], "geometry": { "type": "Point", "coordinates": [ 44.8588186, 41.672845 ] } },
{ "type": "Feature", "properties": { "district": 5.0, "precinct": 34.0, "latitude": 41.672226624765401, "longitude": 44.868153333663898, "id": 5034.0, "name_ka": "გაბრიელ სალოსის მე-6 შეს.კ.5" }, "bbox": [ 44.8681533, 41.6722266, 44.8681533, 41.6722266 ], "geometry": { "type": "Point", "coordinates": [ 44.8681533, 41.6722266 ] } },
{ "type": "Feature", "properties": { "district": 5.0, "precinct": 35.0, "latitude": 41.672238645790301, "longitude": 44.8681640625, "id": 5035.0, "name_ka": "გაბრიელ სალოსის 136" }, "bbox": [ 44.8681641, 41.6722386, 44.8681641, 41.6722386 ], "geometry": { "type": "Point", "coordinates": [ 44.8681641, 41.6722386 ] } },
{ "type": "Feature", "properties": { "district": 5.0, "precinct": 36.0, "latitude": 41.6737691, "longitude": 44.8739474, "id": 5036.0, "name_ka": "ბოგდან ხმელნიცკის 48" }, "bbox": [ 44.8739474, 41.6737691, 44.8739474, 41.6737691 ], "geometry": { "type": "Point", "coordinates": [ 44.8739474, 41.6737691 ] } },
{ "type": "Feature", "properties": { "district": 5.0, "precinct": 37.0, "latitude": 41.673789190679898, "longitude": 44.874006079653903, "id": 5037.0, "name_ka": "ბოგდან ხმელნიცკის 48" }, "bbox": [ 44.8740061, 41.6737892, 44.8740061, 41.6737892 ], "geometry": { "type": "Point", "coordinates": [ 44.8740061, 41.6737892 ] } },
{ "type": "Feature", "properties": { "district": 5.0, "precinct": 38.0, "latitude": 41.6919147411487, "longitude": 44.837484484655697, "id": 5038.0, "name_ka": "მელაანის მე-5 შეს. # 7" }, "bbox": [ 44.8374845, 41.6919147, 44.8374845, 41.6919147 ], "geometry": { "type": "Point", "coordinates": [ 44.8374845, 41.6919147 ] } },
{ "type": "Feature", "properties": { "district": 5.0, "precinct": 39.0, "latitude": 41.688320730080299, "longitude": 44.851204013565997, "id": 5039.0, "name_ka": "კაკაბეთის ქ. N2" }, "bbox": [ 44.851204, 41.6883207, 44.851204, 41.6883207 ], "geometry": { "type": "Point", "coordinates": [ 44.851204, 41.6883207 ] } },
{ "type": "Feature", "properties": { "district": 5.0, "precinct": 40.0, "latitude": 41.6954190182717, "longitude": 44.845429658889699, "id": 5040.0, "name_ka": "მესხეთის ქ. 72" }, "bbox": [ 44.8454297, 41.695419, 44.8454297, 41.695419 ], "geometry": { "type": "Point", "coordinates": [ 44.8454297, 41.695419 ] } },
{ "type": "Feature", "properties": { "district": 5.0, "precinct": 41.0, "latitude": 41.6957361750652, "longitude": 44.841587323029998, "id": 5041.0, "name_ka": "ყვარლის ჩიხი200" }, "bbox": [ 44.8415873, 41.6957362, 44.8415873, 41.6957362 ], "geometry": { "type": "Point", "coordinates": [ 44.8415873, 41.6957362 ] } },
{ "type": "Feature", "properties": { "district": 5.0, "precinct": 42.0, "latitude": 41.6954710905908, "longitude": 44.8455262184143, "id": 5042.0, "name_ka": "მესხეთის ქ. 72" }, "bbox": [ 44.8455262, 41.6954711, 44.8455262, 41.6954711 ], "geometry": { "type": "Point", "coordinates": [ 44.8455262, 41.6954711 ] } },
{ "type": "Feature", "properties": { "district": 5.0, "precinct": 43.0, "latitude": 41.696420401634299, "longitude": 44.844861030578599, "id": 5043.0, "name_ka": "ტვიშის 2" }, "bbox": [ 44.844861, 41.6964204, 44.844861, 41.6964204 ], "geometry": { "type": "Point", "coordinates": [ 44.844861, 41.6964204 ] } },
{ "type": "Feature", "properties": { "district": 5.0, "precinct": 44.0, "latitude": 41.695652546592001, "longitude": 44.845606379549103, "id": 5044.0, "name_ka": "მესხეთის ქ. 72" }, "bbox": [ 44.8456064, 41.6956525, 44.8456064, 41.6956525 ], "geometry": { "type": "Point", "coordinates": [ 44.8456064, 41.6956525 ] } },
{ "type": "Feature", "properties": { "district": 5.0, "precinct": 45.0, "latitude": 41.688312719516603, "longitude": 44.851241766111897, "id": 5045.0, "name_ka": "კაკაბეთის ქ.N2" }, "bbox": [ 44.8512418, 41.6883127, 44.8512418, 41.6883127 ], "geometry": { "type": "Point", "coordinates": [ 44.8512418, 41.6883127 ] } },
{ "type": "Feature", "properties": { "district": 5.0, "precinct": 46.0, "latitude": 41.692266310023797, "longitude": 44.857274454631003, "id": 5046.0, "name_ka": "ძმები ორბელიანების 7" }, "bbox": [ 44.8572745, 41.6922663, 44.8572745, 41.6922663 ], "geometry": { "type": "Point", "coordinates": [ 44.8572745, 41.6922663 ] } },
{ "type": "Feature", "properties": { "district": 5.0, "precinct": 47.0, "latitude": 41.686794586593301, "longitude": 44.858423342327796, "id": 5047.0, "name_ka": "კახეთის გზატკეცილი 21" }, "bbox": [ 44.8584233, 41.6867946, 44.8584233, 41.6867946 ], "geometry": { "type": "Point", "coordinates": [ 44.8584233, 41.6867946 ] } },
{ "type": "Feature", "properties": { "district": 5.0, "precinct": 48.0, "latitude": 41.688625221885502, "longitude": 44.860197901725698, "id": 5048.0, "name_ka": "ონაშვილის ქუჩა №1" }, "bbox": [ 44.8601979, 41.6886252, 44.8601979, 41.6886252 ], "geometry": { "type": "Point", "coordinates": [ 44.8601979, 41.6886252 ] } },
{ "type": "Feature", "properties": { "district": 5.0, "precinct": 49.0, "latitude": 41.6899778, "longitude": 44.861935, "id": 5049.0, "name_ka": "ლაღიძის 20" }, "bbox": [ 44.861935, 41.6899778, 44.861935, 41.6899778 ], "geometry": { "type": "Point", "coordinates": [ 44.861935, 41.6899778 ] } },
{ "type": "Feature", "properties": { "district": 5.0, "precinct": 50.0, "latitude": 41.6897868, "longitude": 44.8622719, "id": 5050.0, "name_ka": "ლაღიძის 20" }, "bbox": [ 44.8622719, 41.6897868, 44.8622719, 41.6897868 ], "geometry": { "type": "Point", "coordinates": [ 44.8622719, 41.6897868 ] } },
{ "type": "Feature", "properties": { "district": 5.0, "precinct": 51.0, "latitude": 41.687883134491102, "longitude": 44.855905346700098, "id": 5051.0, "name_ka": "კახეთის გზატკეცილი 36" }, "bbox": [ 44.8559053, 41.6878831, 44.8559053, 41.6878831 ], "geometry": { "type": "Point", "coordinates": [ 44.8559053, 41.6878831 ] } },
{ "type": "Feature", "properties": { "district": 5.0, "precinct": 52.0, "latitude": 41.688753323270397, "longitude": 44.860443016146803, "id": 5052.0, "name_ka": "ონაშვილის ქუჩა №1" }, "bbox": [ 44.860443, 41.6887533, 44.860443, 41.6887533 ], "geometry": { "type": "Point", "coordinates": [ 44.860443, 41.6887533 ] } },
{ "type": "Feature", "properties": { "district": 5.0, "precinct": 53.0, "latitude": 41.695959878554, "longitude": 44.861824019944898, "id": 5053.0, "name_ka": "ვარკეთილის 4 მიკრო რაიონი 3 კვარტალი" }, "bbox": [ 44.861824, 41.6959599, 44.861824, 41.6959599 ], "geometry": { "type": "Point", "coordinates": [ 44.861824, 41.6959599 ] } },
{ "type": "Feature", "properties": { "district": 5.0, "precinct": 54.0, "latitude": 41.6960437, "longitude": 44.861922, "id": 5054.0, "name_ka": "ვარკეთილის 4 მიკრო რაიონი 3 კვარტალი" }, "bbox": [ 44.861922, 41.6960437, 44.861922, 41.6960437 ], "geometry": { "type": "Point", "coordinates": [ 44.861922, 41.6960437 ] } },
{ "type": "Feature", "properties": { "district": 5.0, "precinct": 55.0, "latitude": 41.6945208, "longitude": 44.8567292, "id": 5055.0, "name_ka": "ვაზ.დას. კვაჭანტირაძის 2" }, "bbox": [ 44.8567292, 41.6945208, 44.8567292, 41.6945208 ], "geometry": { "type": "Point", "coordinates": [ 44.8567292, 41.6945208 ] } },
{ "type": "Feature", "properties": { "district": 5.0, "precinct": 56.0, "latitude": 41.695397645812797, "longitude": 44.858789596866401, "id": 5056.0, "name_ka": "ვაზისუბნის დასახლება" }, "bbox": [ 44.8587896, 41.6953976, 44.8587896, 41.6953976 ], "geometry": { "type": "Point", "coordinates": [ 44.8587896, 41.6953976 ] } },
{ "type": "Feature", "properties": { "district": 5.0, "precinct": 57.0, "latitude": 41.6947898, "longitude": 44.8573162, "id": 5057.0, "name_ka": "ვაზ.დას. კვაჭანტირაძის 2" }, "bbox": [ 44.8573162, 41.6947898, 44.8573162, 41.6947898 ], "geometry": { "type": "Point", "coordinates": [ 44.8573162, 41.6947898 ] } },
{ "type": "Feature", "properties": { "district": 5.0, "precinct": 58.0, "latitude": 41.70811, "longitude": 44.8529378, "id": 5058.0, "name_ka": "ვაზისუბნის 4 მიკრო რაიონი 2 კვარტალ" }, "bbox": [ 44.8529378, 41.70811, 44.8529378, 41.70811 ], "geometry": { "type": "Point", "coordinates": [ 44.8529378, 41.70811 ] } },
{ "type": "Feature", "properties": { "district": 5.0, "precinct": 59.0, "latitude": 41.6952485, "longitude": 44.8587536, "id": 5059.0, "name_ka": "ვაზისუბნის დასახლება" }, "bbox": [ 44.8587536, 41.6952485, 44.8587536, 41.6952485 ], "geometry": { "type": "Point", "coordinates": [ 44.8587536, 41.6952485 ] } },
{ "type": "Feature", "properties": { "district": 5.0, "precinct": 60.0, "latitude": 41.7032143, "longitude": 44.8503186, "id": 5060.0, "name_ka": "ვაზისუბნის 4 მიკრო რაიონი 1 კვარტა" }, "bbox": [ 44.8503186, 41.7032143, 44.8503186, 41.7032143 ], "geometry": { "type": "Point", "coordinates": [ 44.8503186, 41.7032143 ] } },